Time,header.seq,header.stamp.secs,header.stamp.nsecs,header.frame_id,child_frame_id,transform.translation.x,transform.translation.y,transform.translation.z,transform.rotation.x,transform.rotation.y,transform.rotation.z,transform.rotation.w
1664959673.4016051,17163,1664959673,400324106,vive/reference,vive/tracker_1,0.45055075246843823,-2.2160651626319874,-0.14858484246345727,-0.1471297612561867,-0.042454192255973994,0.8974416454678698,-0.413700844152192
1664959673.4209673,17164,1664959673,420331717,vive/reference,vive/tracker_1,0.4505467118030977,-2.215933536823905,-0.14850723605492622,-0.1471548747265043,-0.042428762971401135,0.8974527693610954,-0.4136703927860794
1664959673.4416144,17165,1664959673,440317631,vive/reference,vive/tracker_1,0.4506094543389436,-2.215975587222783,-0.14837005755413646,-0.14716733060563641,-0.042468958786430505,0.8974452169235902,-0.41367824947214504
1664959673.4616654,17166,1664959673,460332632,vive/reference,vive/tracker_1,0.45064934010695157,-2.215901210537539,-0.1483848799581886,-0.14719601870525167,-0.042474445440773806,0.8974523826253161,-0.41365187477078724
1664959673.482189,17167,1664959673,480369568,vive/reference,vive/tracker_1,0.45067575201666243,-2.2158299200111586,-0.14845880833974867,-0.14723395597743538,-0.04242168653348502,0.8974513902939865,-0.41364595195978027
1664959673.5019622,17168,1664959673,500331879,vive/reference,vive/tracker_1,0.4505742407407636,-2.2158999618624184,-0.1485571609931906,-0.14718856155394633,-0.04234768243439707,0.8974735412431286,-0.4136216617535748
1664959673.5219944,17169,1664959673,520334482,vive/reference,vive/tracker_1,0.4504193571702435,-2.2159693500375033,-0.14853145418241454,-0.1472110451743065,-0.0423769448249153,0.8974702263829186,-0.41361780102603596
1664959673.5412486,17170,1664959673,540332079,vive/reference,vive/tracker_1,0.4503303639774703,-2.2161181753885772,-0.14844394296391306,-0.1472265575012187,-0.0423974164372406,0.8974614521662614,-0.41362928190008086
1664959673.5614526,17171,1664959673,560321569,vive/reference,vive/tracker_1,0.45037515109520565,-2.2161260905688005,-0.14856510454649152,-0.14721620529611368,-0.04241562211287328,0.8974751301638983,-0.4136013930942929
1664959673.5824604,17172,1664959673,580353260,vive/reference,vive/tracker_1,0.45043998207695846,-2.2159669184113544,-0.1485513510368377,-0.14723370069722092,-0.04244883701115848,0.8974601810304921,-0.41362418914254484
1664959673.6009831,17173,1664959673,600327969,vive/reference,vive/tracker_1,0.4504732388549535,-2.2159686588525753,-0.1485842557992605,-0.14723966173968084,-0.04241144360923946,0.8974797028773738,-0.413583530665391
1664959673.6216247,17174,1664959673,620328665,vive/reference,vive/tracker_1,0.45056580001999014,-2.215899000544002,-0.14853236734247632,-0.14726147985619586,-0.04245686774517887,0.8974676901132663,-0.41359716405182173
1664959673.6418514,17175,1664959673,640372038,vive/reference,vive/tracker_1,0.45074515426929973,-2.2158665552683483,-0.14841471327162248,-0.14730465019063138,-0.04242019265901936,0.8974616433359961,-0.41359872584478097
1664959673.6611402,17176,1664959673,660343409,vive/reference,vive/tracker_1,0.45074980712812285,-2.2160261611243057,-0.1483947302038815,-0.1472911051681141,-0.04249099164289405,0.8974328778324092,-0.41365865930142187
1664959673.6817188,17177,1664959673,680317402,vive/reference,vive/tracker_1,0.45051200976704364,-2.2160071494866376,-0.1486068795805835,-0.14725516344645861,-0.04246638218944107,0.8974371805221911,-0.41366466481550834
1664959673.7016792,17178,1664959673,700312376,vive/reference,vive/tracker_1,0.4505312402516781,-2.216046885262249,-0.1486284499281929,-0.1472341253277652,-0.04250365448804147,0.8974394477510134,-0.41366343653465576
1664959673.7217453,17179,1664959673,720320940,vive/reference,vive/tracker_1,0.45050241959965454,-2.215965861616947,-0.1486204940714102,-0.1471834387285838,-0.042502480920657615,0.8974470087438786,-0.41366514026386114
1664959673.7408648,17180,1664959673,740314245,vive/reference,vive/tracker_1,0.450492727301014,-2.215983452663835,-0.1484771840060355,-0.14715084556104668,-0.042536060186470936,0.8974283710484428,-0.4137137627723628
1664959673.7612004,17181,1664959673,760370493,vive/reference,vive/tracker_1,0.45053514548168994,-2.216047161579699,-0.1484831675177385,-0.1470899618897586,-0.04254466532744286,0.897401875550176,-0.4137919632120066
1664959673.7809863,17182,1664959673,780320168,vive/reference,vive/tracker_1,0.4506019122402598,-2.216067115138381,-0.14849770364003279,-0.14706008128546222,-0.04260136386386282,0.8973828977201697,-0.41383791412428117
1664959673.8013673,17183,1664959673,800315380,vive/reference,vive/tracker_1,0.4505611535639986,-2.21599292142685,-0.1485128650661407,-0.14700890936416527,-0.042546158940153705,0.8973722999977023,-0.41388473070262977
1664959673.821275,17184,1664959673,820343494,vive/reference,vive/tracker_1,0.450577706709389,-2.2159857742851385,-0.1484536248123156,-0.1470225868056801,-0.042632191256510105,0.8973787496562725,-0.41385705743837675
1664959673.8410778,17185,1664959673,840344429,vive/reference,vive/tracker_1,0.45063643991795277,-2.2158538968737247,-0.14847678277342746,-0.1470139977230534,-0.04257774940507,0.8973993899865123,-0.41382095838678634
1664959673.8608708,17186,1664959673,860314608,vive/reference,vive/tracker_1,0.4505414218627355,-2.215906578353767,-0.14844760729496675,-0.14701051421638428,-0.042613615799747456,0.8973730305256176,-0.4138756136680054
1664959673.88156,17187,1664959673,880302191,vive/reference,vive/tracker_1,0.45054594071328213,-2.2158919332171463,-0.14847419906315462,-0.14705336522006585,-0.04258247268837603,0.8973845870985016,-0.4138385945116629
1664959673.9010134,17188,1664959673,900303602,vive/reference,vive/tracker_1,0.4505351450264017,-2.216021979813864,-0.14853915406218698,-0.14703478086072802,-0.042567862768750186,0.8973833576585435,-0.41384938960568113
1664959673.9216907,17189,1664959673,920319796,vive/reference,vive/tracker_1,0.45056398257785557,-2.2160168538760323,-0.14855688220547814,-0.14703862690226682,-0.04254051353077712,0.8973794374465145,-0.4138592993520318
1664959673.9418359,17190,1664959673,940331697,vive/reference,vive/tracker_1,0.4505960933630908,-2.2160942836643764,-0.14851995751226532,-0.14703187229016146,-0.042583014917559614,0.8973937593694201,-0.41382628855871517
1664959673.9615805,17191,1664959673,960337877,vive/reference,vive/tracker_1,0.4505258030055279,-2.216167410251941,-0.14850926176926427,-0.14698404534356269,-0.04257703424264095,0.897372083101731,-0.4138908302605061
1664959673.9810023,17192,1664959673,980323076,vive/reference,vive/tracker_1,0.4505085703388285,-2.215985023899291,-0.14841886540469185,-0.1470011819930614,-0.042570866896929405,0.8973788963259879,-0.4138706125714604
1664959674.001539,17193,1664959674,328064,vive/reference,vive/tracker_1,0.45067617825174167,-2.2159004794095725,-0.1484960443697214,-0.14703263414087125,-0.04256632452230638,0.8974033313803018,-0.41380694764979725
1664959674.020878,17194,1664959674,20318508,vive/reference,vive/tracker_1,0.4506219135270022,-2.2159657615644646,-0.1484667437159275,-0.14703734261616425,-0.04257913202380775,0.8974059961455629,-0.4137981677672277
1664959674.041629,17195,1664959674,40324450,vive/reference,vive/tracker_1,0.45065452540523654,-2.2160608068607135,-0.14853296954158646,-0.1470139636713001,-0.04256663670902844,0.8974160642833979,-0.4137859475256783
1664959674.06096,17196,1664959674,60319424,vive/reference,vive/tracker_1,0.4506083978719737,-2.216048653955638,-0.14854627393842312,-0.14702809746851814,-0.04259594366979563,0.897430203786862,-0.4137472501602818
1664959674.0817971,17197,1664959674,80325365,vive/reference,vive/tracker_1,0.4504869572090848,-2.2160739086391006,-0.14855342642266312,-0.14702534719285804,-0.042631461269902554,0.897414501131397,-0.413778595945448
1664959674.1019366,17198,1664959674,100335836,vive/reference,vive/tracker_1,0.4504291022428555,-2.216065150028131,-0.14858026211567443,-0.14701914465057792,-0.04262764769084362,0.8973894407976595,-0.4138355348541471
1664959674.1216493,17199,1664959674,120363712,vive/reference,vive/tracker_1,0.4505138496284802,-2.2160528845607703,-0.14858466679939264,-0.14701540300834032,-0.042630043326194106,0.89740256608784,-0.413808158759458
1664959674.1415462,17200,1664959674,140275478,vive/reference,vive/tracker_1,0.4505234467151402,-2.2161591300638013,-0.14857938939152238,-0.1470202430684986,-0.04260807414294304,0.8974009480624972,-0.4138122271163093
1664959674.160923,17201,1664959674,160330772,vive/reference,vive/tracker_1,0.45056916209307274,-2.2161094172565563,-0.148593902854127,-0.14703055606034537,-0.042617040318674804,0.8973877348715348,-0.41383629744971545
1664959674.1810398,17202,1664959674,180340052,vive/reference,vive/tracker_1,0.45062377573767365,-2.2159864231974704,-0.14852633917968205,-0.1470932809152059,-0.04263234944371705,0.8974044544268316,-0.41377617109875586
1664959674.2011185,17203,1664959674,200343370,vive/reference,vive/tracker_1,0.4506179790101268,-2.2160777650811068,-0.1485056456847862,-0.1470505464631131,-0.042662192404102656,0.8973926057465624,-0.4138139543971947
1664959674.2217488,17204,1664959674,220323563,vive/reference,vive/tracker_1,0.45058949849281427,-2.2160606067896222,-0.14851738701221384,-0.1470826987392072,-0.04261643281955285,0.8974033227868825,-0.41378402676845294
1664959674.2416356,17205,1664959674,240321875,vive/reference,vive/tracker_1,0.45054268642060413,-2.216072961662996,-0.14857494698675477,-0.1470916415774407,-0.042579189104488185,0.8974233991003885,-0.4137411399808639
1664959674.2616706,17206,1664959674,260317087,vive/reference,vive/tracker_1,0.4504257199493862,-2.2160843656222977,-0.14857274052843428,-0.14708222486573624,-0.04258481722531027,0.8974054801464119,-0.41378277147457
1664959674.2815843,17207,1664959674,280314445,vive/reference,vive/tracker_1,0.45052538770760475,-2.216025200883977,-0.14850298601399015,-0.14714008082825347,-0.04259939735527438,0.8974044246283306,-0.413763000167682
1664959674.3011107,17208,1664959674,300323009,vive/reference,vive/tracker_1,0.45054631978823667,-2.215968574814922,-0.148489389225694,-0.14713100991313444,-0.042554068668721606,0.8974204605865338,-0.4137360973687422
1664959674.3215516,17209,1664959674,320320606,vive/reference,vive/tracker_1,0.4505031474188692,-2.2160934683791105,-0.14850259158638357,-0.14712247121047434,-0.04247279219128669,0.8974716919175632,-0.4136363583089414
1664959674.3416138,17210,1664959674,340320826,vive/reference,vive/tracker_1,0.4505064104259826,-2.2161048527200533,-0.14852415848743616,-0.14711326154810478,-0.04251929542782387,0.8974700371097425,-0.413638417420332
1664959674.3610075,17211,1664959674,360317945,vive/reference,vive/tracker_1,0.4505818317763779,-2.216081970927217,-0.14854930340273187,-0.14714580289145385,-0.04246566821920525,0.8974823534642378,-0.4136055701416396
1664959674.382,17212,1664959674,380347013,vive/reference,vive/tracker_1,0.45074093508539304,-2.2160905456320448,-0.14846051701287033,-0.14717390067129532,-0.04243016780577477,0.8975009348792934,-0.41355899367854865
1664959674.4010713,17213,1664959674,400338173,vive/reference,vive/tracker_1,0.45067766070063997,-2.2162104249795203,-0.1484346748800225,-0.1471402643141269,-0.04243695608684539,0.8974667666850331,-0.4136444025410748
1664959674.421813,17214,1664959674,420335054,vive/reference,vive/tracker_1,0.450639901888757,-2.216272276566923,-0.14852051386441767,-0.14711401090245135,-0.04248000162985183,0.897421810761753,-0.41374685034348047
1664959674.4413612,17215,1664959674,440325975,vive/reference,vive/tracker_1,0.45053557909209085,-2.2160753333786642,-0.14854268760897416,-0.14710224231593866,-0.042462533835686184,0.8974428204464759,-0.41370728779426624
1664959674.4617598,17216,1664959674,460328341,vive/reference,vive/tracker_1,0.4504919418322302,-2.216044608673947,-0.14851353267308953,-0.14709558947672152,-0.04244408684476095,0.8974353261243323,-0.4137277656022024
1664959674.4818664,17217,1664959674,480323076,vive/reference,vive/tracker_1,0.45049392241908914,-2.2160236857277225,-0.14854266259101712,-0.1471196843647865,-0.04242775524571901,0.8974400926884063,-0.41371048610636557
1664959674.501522,17218,1664959674,500327587,vive/reference,vive/tracker_1,0.45061316540669893,-2.2161032015538837,-0.14857740724308588,-0.14715270882306458,-0.04236219915772069,0.8974474867679155,-0.41368944024095555
1664959674.5220451,17219,1664959674,520343781,vive/reference,vive/tracker_1,0.45060278148022426,-2.21612517217651,-0.14848199683133245,-0.14717711467025985,-0.04239663105970462,0.8974323006916287,-0.41371017543538313
1664959674.5416927,17220,1664959674,540328503,vive/reference,vive/tracker_1,0.4505904409248156,-2.2161388508694766,-0.1484664460344649,-0.14722445925652228,-0.04242639732471826,0.8974052607978414,-0.4137489507146783
1664959674.5608613,17221,1664959674,560315371,vive/reference,vive/tracker_1,0.4505956067651382,-2.2161522852145925,-0.14853780665238503,-0.14719686004237337,-0.042437499848005406,0.8974083081408458,-0.41375099290030126
1664959674.581166,17222,1664959674,580378771,vive/reference,vive/tracker_1,0.45064449728110856,-2.216151298467427,-0.14853207704948135,-0.14722809928813962,-0.04245285390043477,0.897405909742186,-0.41374350472059185
1664959674.6020048,17223,1664959674,600319862,vive/reference,vive/tracker_1,0.4506630042893274,-2.2161193844908285,-0.14857950662376318,-0.14723086105899774,-0.04243694149325497,0.8974097432093826,-0.4137358444163064
1664959674.6218233,17224,1664959674,620289087,vive/reference,vive/tracker_1,0.45063683454575076,-2.216033794209174,-0.1485472522521536,-0.14724263188267422,-0.04247733623527489,0.8974159323380875,-0.41371408146235766
1664959674.641596,17225,1664959674,640319109,vive/reference,vive/tracker_1,0.4506448192040755,-2.2160343300252,-0.14861879987609639,-0.14723252000413017,-0.04245002482762,0.8974084274361185,-0.4137367747609525
1664959674.6616867,17226,1664959674,660348415,vive/reference,vive/tracker_1,0.4507276763815835,-2.216056802983494,-0.14856016379922332,-0.14719226262585722,-0.04248524399415962,0.8974321829774956,-0.41369594047288827
1664959674.6821496,17227,1664959674,680325031,vive/reference,vive/tracker_1,0.4507693887582296,-2.2160308658461494,-0.1484344819973149,-0.14717691112456815,-0.04252398680335506,0.8974266006109995,-0.41370950773645665
1664959674.701641,17228,1664959674,700324297,vive/reference,vive/tracker_1,0.4507919094016677,-2.216032668811091,-0.14831284596860916,-0.1471820965511158,-0.042533635075547443,0.8974222309719339,-0.41371618409964755
1664959674.7218726,17229,1664959674,720348835,vive/reference,vive/tracker_1,0.45080647865120915,-2.2160622320632877,-0.14838468096417756,-0.14716468554500706,-0.04254827060532029,0.8974149813579131,-0.41373659305204546
1664959674.7424283,17230,1664959674,740327358,vive/reference,vive/tracker_1,0.4506560048119337,-2.2161992113200966,-0.14847065434413143,-0.14712662325451442,-0.042570346957843924,0.8974182827254763,-0.41374071429458137
1664959674.7610009,17231,1664959674,760320187,vive/reference,vive/tracker_1,0.4505482192284769,-2.216119352781141,-0.14855979681975784,-0.14707581712403278,-0.0425877790654236,0.8974049007078155,-0.41378596577052107
1664959674.7810028,17232,1664959674,780323744,vive/reference,vive/tracker_1,0.45049548839383013,-2.2161374176331323,-0.14852113010262746,-0.14707188698150675,-0.042590777658409906,0.8974042131739539,-0.4137885756044922
1664959674.8012712,17233,1664959674,800369024,vive/reference,vive/tracker_1,0.4504987890705603,-2.216169208902607,-0.14854550617455065,-0.1470580764846327,-0.042614067494177565,0.8974089592238601,-0.41378077061668805
1664959674.8214786,17234,1664959674,820348978,vive/reference,vive/tracker_1,0.45045344195877557,-2.2161189166942967,-0.1485555346286347,-0.14704307059663657,-0.04264622826031719,0.8974156122661794,-0.4137683711086446
1664959674.841425,17235,1664959674,840315819,vive/reference,vive/tracker_1,0.4505190710436755,-2.2161658837889826,-0.14850719711725135,-0.14705295235788146,-0.042639182561956174,0.8974243529385243,-0.4137466061442421
1664959674.8616862,17236,1664959674,860313177,vive/reference,vive/tracker_1,0.450658128356628,-2.216149221341088,-0.14845759557162097,-0.14713692693344005,-0.04278967556838556,0.8973662818498966,-0.41382722705628927
1664959674.8812637,17237,1664959674,880326033,vive/reference,vive/tracker_1,0.45076236115218626,-2.2162229497820403,-0.1484090863847607,-0.14710608689173466,-0.04273900113080939,0.8973588744146017,-0.4138594446634929
1664959674.901223,17238,1664959674,900316000,vive/reference,vive/tracker_1,0.45080771068000325,-2.216250990031213,-0.1485195369877088,-0.14709303493555792,-0.042734054220898765,0.8973513579898516,-0.41388092556877654
1664959674.92167,17239,1664959674,920334578,vive/reference,vive/tracker_1,0.45077355233779115,-2.216161231748513,-0.14850168216099036,-0.14711319494170277,-0.04273950900390805,0.8973523709625402,-0.4138709637050074
1664959674.9409504,17240,1664959674,940340996,vive/reference,vive/tracker_1,0.4507364354931187,-2.2160657787238707,-0.1484902092181417,-0.1470922957727796,-0.042700844530438015,0.8973629767341743,-0.41385941915146784
1664959674.9618745,17241,1664959674,960325956,vive/reference,vive/tracker_1,0.45073283727539004,-2.2160096674441654,-0.14845814695523396,-0.147058553590679,-0.04269159281884055,0.8973771750977435,-0.4138415658162931
1664959674.980957,17242,1664959674,980320692,vive/reference,vive/tracker_1,0.45069922830894504,-2.216079063636177,-0.14844198605343406,-0.14703943645744239,-0.04268369055496932,0.8973946720058974,-0.4138112387475649
1664959675.0017853,17243,1664959675,317812,vive/reference,vive/tracker_1,0.4506869417104731,-2.2160294778624805,-0.14845782150410747,-0.14706245322971356,-0.04267123052243468,0.8973978689509874,-0.41379738043972625
1664959675.0209923,17244,1664959675,20340443,vive/reference,vive/tracker_1,0.45054989163201875,-2.2161079209535983,-0.14840318767101568,-0.14706580182592655,-0.042667712464081825,0.8973917694121984,-0.41380981211257706
1664959675.0419064,17245,1664959675,40322542,vive/reference,vive/tracker_1,0.45065526970302305,-2.216170335217165,-0.1483034955466378,-0.14709825513041097,-0.042671873103293845,0.8973889718229333,-0.41380390398270517
1664959675.0617218,17246,1664959675,60319424,vive/reference,vive/tracker_1,0.45062127997934076,-2.216226245708142,-0.14838864397977414,-0.14712921741926405,-0.042636620749625126,0.8973957905808887,-0.4137817168771305
1664959675.081879,17247,1664959675,80366135,vive/reference,vive/tracker_1,0.45059742937265646,-2.2162071695386514,-0.14846656271518244,-0.14716049326242375,-0.04263128555015891,0.8973807376754963,-0.41380381204970473
1664959675.101163,17248,1664959675,100332022,vive/reference,vive/tracker_1,0.45066217155319044,-2.216167605946229,-0.14843562436326652,-0.1471408788613197,-0.04265476992342723,0.8973655698427039,-0.41384130862565427
1664959675.1217315,17249,1664959675,120323658,vive/reference,vive/tracker_1,0.4505565100553779,-2.2162145863257328,-0.1485265586174549,-0.14712991060965952,-0.0426673997889849,0.8973915697079292,-0.41378745813653395
1664959675.1420124,17250,1664959675,140324116,vive/reference,vive/tracker_1,0.4504635851701433,-2.216135051575724,-0.1486336476613208,-0.14711161441005394,-0.04264496364374948,0.8973983082532896,-0.413781699315557
1664959675.162051,17251,1664959675,160349607,vive/reference,vive/tracker_1,0.45055684886580827,-2.2161391635762757,-0.14852663477417583,-0.1470640152949675,-0.04267835796484948,0.8974002512955692,-0.41379097819436755
1664959675.181896,17252,1664959675,180323362,vive/reference,vive/tracker_1,0.4506161725011786,-2.216236961793462,-0.14842007444882732,-0.14708709832940187,-0.04263632560952346,0.8973994481353503,-0.41378881693806524
1664959675.2009077,17253,1664959675,200335979,vive/reference,vive/tracker_1,0.45067003762368096,-2.2161836156184864,-0.14853197835687526,-0.14710542376399594,-0.04265516202550171,0.8974086885463943,-0.41376035179617127
1664959675.2224162,17254,1664959675,220334291,vive/reference,vive/tracker_1,0.4507757493309732,-2.216145098401159,-0.14845378535792175,-0.14710626085160905,-0.04264214565103924,0.8974180015850273,-0.4137411794698022
1664959675.2411091,17255,1664959675,240326166,vive/reference,vive/tracker_1,0.4506553581938204,-2.2161573482323855,-0.14842863450349109,-0.14714884849876037,-0.04269703015042614,0.8974186855726726,-0.41371884630618216
1664959675.2613695,17256,1664959675,260333538,vive/reference,vive/tracker_1,0.4506399459526851,-2.21615140837927,-0.1484275547326579,-0.14713086410591497,-0.04270109861714902,0.8974078808807843,-0.4137483143522508
1664959675.2822783,17257,1664959675,280354738,vive/reference,vive/tracker_1,0.45065186736073026,-2.2161804466016752,-0.14846068522179268,-0.147108325771874,-0.04267936219201071,0.8974202600313943,-0.4137316862028111
1664959675.301249,17258,1664959675,300319433,vive/reference,vive/tracker_1,0.4506041405567467,-2.2161879883274715,-0.14850302935143977,-0.14711558242802913,-0.042669590914266864,0.8974084913117653,-0.41375564858467634
1664959675.321602,17259,1664959675,320317268,vive/reference,vive/tracker_1,0.45058101259235994,-2.2163543914754062,-0.14850737194322772,-0.14701701260410532,-0.04267727864233084,0.8974058875600598,-0.4137955384782513
1664959675.342078,17260,1664959675,340315104,vive/reference,vive/tracker_1,0.4506603431314613,-2.216246790206632,-0.1485399319374472,-0.14701120125893452,-0.042654802308628226,0.8974143282185303,-0.41378160066530784
1664959675.3618,17261,1664959675,360343933,vive/reference,vive/tracker_1,0.4506156867121722,-2.2162866196436726,-0.14856677778356353,-0.14702853637403618,-0.042692181329233386,0.8974172267453594,-0.41376530432934955
1664959675.3817484,17262,1664959675,380328894,vive/reference,vive/tracker_1,0.45057554341156947,-2.2162396291419184,-0.14853490435499905,-0.14703782085592582,-0.042677565306104726,0.8973971221979749,-0.41380713996107654
1664959675.4010177,17263,1664959675,400321960,vive/reference,vive/tracker_1,0.45069217017894325,-2.2161307324372714,-0.14850129311282467,-0.1470569139658639,-0.04259662146330742,0.8974026688877321,-0.41379663241670517
1664959675.4217322,17264,1664959675,420324087,vive/reference,vive/tracker_1,0.4506046617945818,-2.216197125052438,-0.1484619634621276,-0.147061953626681,-0.04261986974829299,0.8974076675425915,-0.4137816391241315
1664959675.4419796,17265,1664959675,440317869,vive/reference,vive/tracker_1,0.45057790897601957,-2.2161977770299908,-0.14848288974904644,-0.14702715779222575,-0.04264592311014723,0.8973957365186684,-0.41381721266773414
1664959675.4610283,17266,1664959675,460319042,vive/reference,vive/tracker_1,0.4506393843019334,-2.2161060802702637,-0.14846571366821726,-0.14702817453972633,-0.04261061418351758,0.8974116005429604,-0.41378602931542685
1664959675.48163,17267,1664959675,480327606,vive/reference,vive/tracker_1,0.4505885638346514,-2.2161052932851293,-0.14844346958804477,-0.14702923012436497,-0.042704182290725506,0.8973942363708143,-0.4138136791526836
1664959675.50158,17268,1664959675,500334740,vive/reference,vive/tracker_1,0.4505674656439982,-2.216192323914098,-0.14844800687767723,-0.14706731484630153,-0.042733718591436265,0.8973814437441682,-0.413824880126901
1664959675.5214827,17269,1664959675,520326376,vive/reference,vive/tracker_1,0.45054987813238223,-2.2161237887597314,-0.14838663388820894,-0.1470599114264366,-0.04273019766048569,0.8973782998035413,-0.41383465916128037
1664959675.5409017,17270,1664959675,540316820,vive/reference,vive/tracker_1,0.45069080904727943,-2.2161744678522015,-0.1484300613347389,-0.1470943613320302,-0.04270521914413769,0.8973932951245092,-0.41379246095434963
1664959675.5618992,17271,1664959675,560323715,vive/reference,vive/tracker_1,0.4507847765901889,-2.2161708982571096,-0.1483080897611253,-0.14712513864345644,-0.04280347098210882,0.8973905146400176,-0.41377738002835307
1664959675.5808663,17272,1664959675,580334187,vive/reference,vive/tracker_1,0.450640566260448,-2.2162148161020236,-0.14845629905534308,-0.1470881189019016,-0.04281708049522312,0.8973894587790464,-0.4137914253527802
1664959675.601051,17273,1664959675,600330114,vive/reference,vive/tracker_1,0.45050951715367016,-2.216204555478704,-0.14860876794359834,-0.14710105509868532,-0.0428222777500539,0.897375019188833,-0.41381763575634456
1664959675.6214778,17274,1664959675,620326281,vive/reference,vive/tracker_1,0.4504692220540625,-2.2162840506541466,-0.14860321754968453,-0.14705772482625162,-0.04283103798642443,0.8973844798168877,-0.4138115975381391
1664959675.6409369,17275,1664959675,640318394,vive/reference,vive/tracker_1,0.45051980308006034,-2.21630307808356,-0.1485607561368938,-0.1470583864900935,-0.042811217764122445,0.8973770807426791,-0.4138294441081614
1664959675.6619833,17276,1664959675,660324097,vive/reference,vive/tracker_1,0.4505260674253846,-2.216349006728494,-0.1484907500012418,-0.1470788499616592,-0.04282141761525107,0.8973664841873413,-0.41384409934531435
1664959675.6819441,17277,1664959675,680321455,vive/reference,vive/tracker_1,0.45055752325615095,-2.2162174443338554,-0.1484344653536369,-0.14712484583585939,-0.042830927318969925,0.8973590522821586,-0.4138429104172375
1664959675.7016408,17278,1664959675,700317621,vive/reference,vive/tracker_1,0.45069691293880054,-2.2162375405374357,-0.14833921010731554,-0.14710348455049788,-0.04283063622380187,0.8973449768940974,-0.4138810421593565
1664959675.7210836,17279,1664959675,720321655,vive/reference,vive/tracker_1,0.45075332144109903,-2.21614267657798,-0.1483875626241411,-0.14715144219149318,-0.042831374421791774,0.8973497058724063,-0.4138536588516951
1664959675.742248,17280,1664959675,740329742,vive/reference,vive/tracker_1,0.4506362459445572,-2.2161060520032096,-0.14836136679351375,-0.1471596656820609,-0.042888832196125326,0.8973408734133135,-0.4138639747717665
1664959675.7608368,17281,1664959675,760313511,vive/reference,vive/tracker_1,0.4505518687166672,-2.2161675635034217,-0.14838758330148094,-0.14716485911213023,-0.04286749347867927,0.8973386263096457,-0.4138691558941217
1664959675.7818115,17282,1664959675,780337095,vive/reference,vive/tracker_1,0.4504252896584411,-2.2162413011448914,-0.14853197672528928,-0.1471812849871763,-0.042861821204983164,0.8973368525597414,-0.413867777463914
1664959675.8015995,17283,1664959675,800316811,vive/reference,vive/tracker_1,0.4504519013234993,-2.2162893213164727,-0.14856412965509236,-0.14720162941124715,-0.04284946641528459,0.897326531063413,-0.4138841187649922
1664959675.8217115,17284,1664959675,820329666,vive/reference,vive/tracker_1,0.45049393687698536,-2.216300715903009,-0.14853717579901637,-0.1471819510594477,-0.042850364496530374,0.8973111015607047,-0.41392455756950997
1664959675.8423278,17285,1664959675,840322971,vive/reference,vive/tracker_1,0.45056471601253434,-2.2163054687233985,-0.14846919291861527,-0.1471974562225266,-0.042853915538837745,0.8973095941902918,-0.413921902848729
1664959675.8620117,17286,1664959675,860338926,vive/reference,vive/tracker_1,0.4507002983476667,-2.21632324072825,-0.1484435947101379,-0.14722110626044693,-0.04279842643428214,0.8973023168038623,-0.4139350142435601
1664959675.881032,17287,1664959675,880330324,vive/reference,vive/tracker_1,0.4507489460121181,-2.216273417481021,-0.14842338919967712,-0.14723059841167935,-0.04276993985633265,0.8973305632307129,-0.41387337364176036
1664959675.9020858,17288,1664959675,900348425,vive/reference,vive/tracker_1,0.4506410435575636,-2.216302665892711,-0.1484659177511345,-0.14713722648184474,-0.04270988651766777,0.8973437169238792,-0.4138842885029266
1664959675.9229681,17289,1664959675,920348406,vive/reference,vive/tracker_1,0.45051746239049284,-2.2163098420769214,-0.14841839857179595,-0.14718242770682982,-0.0427938745067539,0.897326985532424,-0.4138957860340031
1664959675.941572,17290,1664959675,940327406,vive/reference,vive/tracker_1,0.4505523445115467,-2.216379330457615,-0.14834706747450754,-0.1471642036818538,-0.04273752668225342,0.8973164930140329,-0.41393080067212734
1664959675.9619458,17291,1664959675,960323811,vive/reference,vive/tracker_1,0.45052868427086845,-2.216314097684386,-0.14857826026356902,-0.14717155364920192,-0.0427009758163992,0.8973305647693574,-0.41390148341136596
1664959675.9810693,17292,1664959675,980325699,vive/reference,vive/tracker_1,0.4506187458271984,-2.2162203055012517,-0.14844001499951842,-0.14718418920421,-0.04268795153506699,0.8973470748393229,-0.4138625217466993
1664959676.0023584,17293,1664959676,322819,vive/reference,vive/tracker_1,0.4506059360285548,-2.2162310179271363,-0.14839609908483098,-0.14720982564994212,-0.042697680406149546,0.897340592358147,-0.4138664619147958
1664959676.0223062,17294,1664959676,20326138,vive/reference,vive/tracker_1,0.45060612836614333,-2.216282397183368,-0.14844279255768766,-0.14718697132524317,-0.042805515693663615,0.8973299673252491,-0.41388648803740347
1664959676.0410855,17295,1664959676,40314436,vive/reference,vive/tracker_1,0.4506563766763845,-2.2162758786375187,-0.14845611478243637,-0.1471796395631481,-0.04277815296705012,0.8973356806040692,-0.4138795379546482
1664959676.0623016,17296,1664959676,60335636,vive/reference,vive/tracker_1,0.45062156077294246,-2.2163432909225094,-0.14853947990669747,-0.14712519463112356,-0.04276490370490549,0.8973464563308926,-0.4138769415342358
1664959676.0820446,17297,1664959676,80320597,vive/reference,vive/tracker_1,0.45064235351037474,-2.2162593264570365,-0.14852685756734818,-0.14713198850107045,-0.04281867404879855,0.8973478801098043,-0.4138658450584289
1664959676.1015658,17298,1664959676,100333929,vive/reference,vive/tracker_1,0.4507054016350376,-2.216199607206081,-0.14843471997737012,-0.1471161198956228,-0.042784132814911,0.897334449421857,-0.4139041753208371
1664959676.1217206,17299,1664959676,120344639,vive/reference,vive/tracker_1,0.450670476903938,-2.2163236512439792,-0.14849617284454064,-0.1471254478460755,-0.04280533749534832,0.8973353473839377,-0.41389672286532436
1664959676.1418698,17300,1664959676,140333414,vive/reference,vive/tracker_1,0.45064928447262287,-2.2163317521956873,-0.1484723518644233,-0.1471426182521149,-0.04290379582245721,0.8972990055123189,-0.41395919870610043
1664959676.162634,17301,1664959676,160331488,vive/reference,vive/tracker_1,0.45065139789751174,-2.216369745447744,-0.1483841662736638,-0.14716176716696688,-0.042918813300959424,0.8973263887959093,-0.41389146075764555
1664959676.1810088,17302,1664959676,180315971,vive/reference,vive/tracker_1,0.45083128168413666,-2.216268252401699,-0.14837893743997865,-0.1471475510108184,-0.04290132315038028,0.8973042858836144,-0.4139462770666368
1664959676.2015157,17303,1664959676,200370789,vive/reference,vive/tracker_1,0.4507091997889352,-2.216335031475838,-0.148439511063295,-0.14714274747451755,-0.04292220262401697,0.8973034761467944,-0.4139475683958679
1664959676.221179,17304,1664959676,220335722,vive/reference,vive/tracker_1,0.45062334743753474,-2.2162945604246245,-0.1485832623566492,-0.14711865721984696,-0.04289771162484693,0.8972945284530841,-0.4139780878844441
1664959676.2410746,17305,1664959676,240334034,vive/reference,vive/tracker_1,0.45057633384850315,-2.2163494654363634,-0.14854376572213646,-0.1471230697707785,-0.04289619657249569,0.8972889080146091,-0.41398882500119344
1664959676.261413,17306,1664959676,260325909,vive/reference,vive/tracker_1,0.4506368549719031,-2.216232477132925,-0.14856878695016418,-0.147131894025596,-0.04284859541142097,0.8973079587351095,-0.41394929797314384
1664959676.2819002,17307,1664959676,280337334,vive/reference,vive/tracker_1,0.45057529640934324,-2.216342722444382,-0.14843794602190252,-0.14704509111435643,-0.042834768013991525,0.8973129692404163,-0.41397070148595877
1664959676.3016818,17308,1664959676,300334692,vive/reference,vive/tracker_1,0.450583812449308,-2.216252074000174,-0.1485208770952693,-0.14705521128875576,-0.042841676822583774,0.8973323131849451,-0.41392449898309885
1664959676.3216689,17309,1664959676,320317984,vive/reference,vive/tracker_1,0.45057948999827846,-2.216301576655688,-0.14848840543125474,-0.14702354971816245,-0.042782864511463736,0.8973384424132147,-0.41392856971284386
1664959676.3417144,17310,1664959676,340318680,vive/reference,vive/tracker_1,0.4506624875839511,-2.2162537989648743,-0.1484640290149346,-0.14704841527575885,-0.04280433725815963,0.897340482983332,-0.41391308401661603
1664959676.3617184,17311,1664959676,360313654,vive/reference,vive/tracker_1,0.4506771510905667,-2.2164040349537735,-0.1484577788970869,-0.14712338422421584,-0.042797061083196114,0.8973239587705153,-0.41392301216985516
1664959676.3809562,17312,1664959676,380318403,vive/reference,vive/tracker_1,0.45059727649107884,-2.2164191132651068,-0.14840014527713574,-0.14711671119917258,-0.04279246607671702,0.8973362506476925,-0.41389916836025326
1664959676.4011776,17313,1664959676,400348425,vive/reference,vive/tracker_1,0.45055375349065296,-2.216309555041724,-0.14842462074223262,-0.14712234951694225,-0.04285295127741098,0.8973211787912726,-0.41392364004039717
1664959676.4209232,17314,1664959676,420319319,vive/reference,vive/tracker_1,0.45062215777884096,-2.21624693235319,-0.1483583391937806,-0.14718288134703594,-0.04276815500656331,0.8973449877923005,-0.41385928176921005
1664959676.441568,17315,1664959676,440341711,vive/reference,vive/tracker_1,0.4506622418999433,-2.216285207186943,-0.14844279285118223,-0.14718327171228235,-0.04278969688927828,0.8973376778460459,-0.41387277720473437
1664959676.4611163,17316,1664959676,460345745,vive/reference,vive/tracker_1,0.45074062400281956,-2.2163177421198896,-0.14842553085624832,-0.147183459480473,-0.042801610066679735,0.8973307227477061,-0.41388652330742626
1664959676.4822886,17317,1664959676,480326891,vive/reference,vive/tracker_1,0.45066008318849904,-2.216351037298841,-0.14858589880721862,-0.14717277680161278,-0.04272746756006024,0.8973845105007673,-0.41378135855994036
1664959676.5016346,17318,1664959676,500315428,vive/reference,vive/tracker_1,0.45068460878679617,-2.2163009464530306,-0.1486800520433862,-0.14712883007129124,-0.04270580354286363,0.8973916741311994,-0.41378369175468616
1664959676.5214338,17319,1664959676,520338058,vive/reference,vive/tracker_1,0.4505859360572557,-2.2163440677073587,-0.14852568455098458,-0.14710930797980898,-0.04275970643044519,0.8973703246448813,-0.41383134996149856
1664959676.5422447,17320,1664959676,540288687,vive/reference,vive/tracker_1,0.4505882977058151,-2.2163573925677746,-0.14851975108570192,-0.14708919151409372,-0.04280995038559324,0.8973462547109458,-0.41388549743949665
1664959676.5610497,17321,1664959676,560321331,vive/reference,vive/tracker_1,0.4507081757285689,-2.2162318156254064,-0.14849800964073,-0.14711694721150015,-0.04281747376640321,0.897347729311212,-0.4138716672558517
1664959676.5822673,17322,1664959676,580346584,vive/reference,vive/tracker_1,0.4506044386209973,-2.2160704173933317,-0.14846116557809674,-0.14713023668752506,-0.04278691780013727,0.8973535113992859,-0.4138575263360512
1664959676.6014974,17323,1664959676,600311518,vive/reference,vive/tracker_1,0.4505821961806873,-2.2161916725354525,-0.14840726558695083,-0.1471498566376458,-0.04270106774794166,0.8973769025279676,-0.41380873678544733
1664959676.6218328,17324,1664959676,620341539,vive/reference,vive/tracker_1,0.45063208735160676,-2.216332871248617,-0.14847371070218385,-0.14717466873345464,-0.042683944388094724,0.8973706005176731,-0.4138153075637404
1664959676.6409829,17325,1664959676,640300512,vive/reference,vive/tracker_1,0.4506536358705071,-2.216360387542013,-0.14845402799276686,-0.147163277963694,-0.042682970152605054,0.8973609812052282,-0.4138403150644393
1664959676.660975,17326,1664959676,660330057,vive/reference,vive/tracker_1,0.4506976231956339,-2.2163187790679717,-0.14851411384998547,-0.1471597982133041,-0.042676741176202515,0.8973692136485232,-0.4138243681458581
1664959676.6818283,17327,1664959676,680318832,vive/reference,vive/tracker_1,0.45059179572101793,-2.216388452671351,-0.14841624974613854,-0.14713337419349087,-0.042806650653817446,0.8973269946362071,-0.41391193623607914
1664959676.7012556,17328,1664959676,700353384,vive/reference,vive/tracker_1,0.4506072162428423,-2.2163654571199665,-0.1484605693061516,-0.14711872084562477,-0.042754944685887086,0.8973621928206483,-0.4138461231488047
1664959676.722599,17329,1664959676,720347166,vive/reference,vive/tracker_1,0.45060736317780914,-2.216374051089109,-0.14848300259872627,-0.1470696100467997,-0.04278164471590046,0.8973528714150885,-0.41388103403856197
1664959676.7418673,17330,1664959676,740325928,vive/reference,vive/tracker_1,0.450543190798671,-2.216361948298975,-0.14843625919776127,-0.1471051992109429,-0.042809162218983926,0.8973534606209111,-0.4138642710957412
1664959676.7615125,17331,1664959676,760315895,vive/reference,vive/tracker_1,0.45055464507824783,-2.2163327718143524,-0.14845516575302664,-0.1471395974169784,-0.04272245824135773,0.8973627423893836,-0.413840906752011
1664959676.7822795,17332,1664959676,780336380,vive/reference,vive/tracker_1,0.4504777523842154,-2.216226050658257,-0.1484817071700042,-0.14719377363869157,-0.04273162358025412,0.8973500052107773,-0.41384828269812923
1664959676.8011508,17333,1664959676,800317049,vive/reference,vive/tracker_1,0.45045114632577055,-2.2161796786509598,-0.1484475671806651,-0.14715905623651987,-0.042730358988217754,0.8973650641017976,-0.413828100611369
1664959676.8217115,17334,1664959676,820324421,vive/reference,vive/tracker_1,0.45068697107505806,-2.2162948318597704,-0.1483529462939046,-0.14722354652862985,-0.042757090021826816,0.897329765342777,-0.41387890068763067
1664959676.8409348,17335,1664959676,840317011,vive/reference,vive/tracker_1,0.45069435422185644,-2.2163637407789882,-0.1483898771121135,-0.147225390574327,-0.042802955996455005,0.8973387588069786,-0.4138540093189436
1664959676.8614104,17336,1664959676,860330820,vive/reference,vive/tracker_1,0.45070191785968094,-2.216412167281243,-0.14849605441922176,-0.14720998715134903,-0.042812182422849676,0.8973292463382765,-0.4138791924033286
1664959676.8818796,17337,1664959676,880368471,vive/reference,vive/tracker_1,0.45058102528347077,-2.2164180142807774,-0.14837788298276688,-0.1471825561961021,-0.04285631438750187,0.897321599022117,-0.4139009671232998
1664959676.9018443,17338,1664959676,900336742,vive/reference,vive/tracker_1,0.4505180126199988,-2.2164164436946066,-0.14843247888140176,-0.14716076166835573,-0.04290945344492564,0.8973271684707913,-0.41389114617060335
1664959676.921744,17339,1664959676,920318842,vive/reference,vive/tracker_1,0.4505709590320037,-2.2163426245697027,-0.1485401933083499,-0.14716825033244885,-0.04287921425242783,0.8973288564366959,-0.41388792395083723
1664959676.9415379,17340,1664959676,940321207,vive/reference,vive/tracker_1,0.4507089681154397,-2.2162969973357587,-0.1484172530825294,-0.14718773852164763,-0.04291542612354199,0.897315788635462,-0.4139055763651388
1664959676.9609475,17341,1664959676,960344791,vive/reference,vive/tracker_1,0.4506889722228118,-2.216199826504013,-0.1483637390959811,-0.14720175030526367,-0.042877354950552865,0.8973317094572903,-0.4138700077373727
1664959676.981384,17342,1664959676,980342150,vive/reference,vive/tracker_1,0.4505413958089266,-2.2162483814243084,-0.1484416220677054,-0.14720269966673744,-0.04291995392939363,0.8973193983519631,-0.41389197039590797
1664959677.001878,17343,1664959677,340223,vive/reference,vive/tracker_1,0.45052724746030504,-2.216303763168062,-0.1484313562378814,-0.14722956516080277,-0.04285887910514008,0.8973383466998911,-0.41384768649722836
1664959677.0209715,17344,1664959677,20340443,vive/reference,vive/tracker_1,0.4506189632353228,-2.216292111213974,-0.14838725031199784,-0.14727397245887958,-0.04279690499616284,0.8973411564428118,-0.4138321805538418
1664959677.0416074,17345,1664959677,40326834,vive/reference,vive/tracker_1,0.450598631216361,-2.216305991372745,-0.14835262747698819,-0.14729512599607208,-0.04282396684507081,0.8973362573824124,-0.4138324574655855
1664959677.0616522,17346,1664959677,60323477,vive/reference,vive/tracker_1,0.45058459173861,-2.2163143014300952,-0.14843465921339183,-0.14728292996506237,-0.04279012348439795,0.8973463185305512,-0.41381851235456896
1664959677.0812132,17347,1664959677,80327988,vive/reference,vive/tracker_1,0.4506173119112058,-2.2163648580600626,-0.14837619725640705,-0.14724661597605931,-0.0427603359289741,0.8973413268864183,-0.41384536615643697
1664959677.1017463,17348,1664959677,100328207,vive/reference,vive/tracker_1,0.4506604951881792,-2.2163474148538604,-0.1484624393953351,-0.1472541560464976,-0.04269520564884835,0.8973646911612367,-0.41379869927980606
1664959677.1217737,17349,1664959677,120316982,vive/reference,vive/tracker_1,0.450615201334468,-2.216452658167887,-0.1484059709697001,-0.14723190057528496,-0.042691963986709075,0.8973585346986054,-0.4138203954415516
1664959677.1422818,17350,1664959677,140336990,vive/reference,vive/tracker_1,0.450560026738797,-2.2163902819040637,-0.14835279006514224,-0.14724275361867378,-0.042692647605447276,0.8973513106400681,-0.4138320069830057
1664959677.161246,17351,1664959677,160353184,vive/reference,vive/tracker_1,0.45058634625941685,-2.216367518307124,-0.1482939622214574,-0.14724451031029628,-0.042728695166048075,0.8973414996675482,-0.41384899404243464
1664959677.1815248,17352,1664959677,180315256,vive/reference,vive/tracker_1,0.4507480717476662,-2.216287419482757,-0.14839674627906163,-0.14723279075819418,-0.04269435207144717,0.8973707192029118,-0.4137933147223083
1664959677.201028,17353,1664959677,200352192,vive/reference,vive/tracker_1,0.4506207995473106,-2.216310560293804,-0.14843559172512322,-0.14721519507177672,-0.04269639675364126,0.8973817452498107,-0.4137754443891436
1664959677.2223802,17354,1664959677,220351696,vive/reference,vive/tracker_1,0.4505650875709304,-2.21638337513479,-0.14846405575200095,-0.14721939712756654,-0.0427759844743138,0.8973540612115285,-0.41382578768830897
1664959677.2417336,17355,1664959677,240322828,vive/reference,vive/tracker_1,0.45067958023450827,-2.216357866022325,-0.14833510817402162,-0.14722098789592458,-0.042760131618340524,0.8973566527111321,-0.4138212154810895
1664959677.2619276,17356,1664959677,260322809,vive/reference,vive/tracker_1,0.4506119976376508,-2.216353753559435,-0.14837331519680674,-0.14720231986360066,-0.042735245011703005,0.897358470030875,-0.41382648428312696
1664959677.281727,17357,1664959677,280346155,vive/reference,vive/tracker_1,0.45066750716465775,-2.216366376815153,-0.14840081300608432,-0.14721738519284472,-0.04273742236377745,0.8973731348203358,-0.4137891140269553
1664959677.3011432,17358,1664959677,300330639,vive/reference,vive/tracker_1,0.4507477707912899,-2.216402163989134,-0.1483567030979791,-0.14721796453089353,-0.042743061820443046,0.8973589631295396,-0.4138190876023097
1664959677.3209317,17359,1664959677,320318460,vive/reference,vive/tracker_1,0.4507218198197147,-2.216478315053683,-0.14841897084548217,-0.14720602760309243,-0.04274125437923837,0.8973597679754448,-0.41382174789864334
1664959677.3417327,17360,1664959677,340315342,vive/reference,vive/tracker_1,0.4507800592806295,-2.2163943879509533,-0.14844693512255525,-0.1472133065763765,-0.042738162449003164,0.8973681585110027,-0.41380130165885687
1664959677.3609698,17361,1664959677,360322475,vive/reference,vive/tracker_1,0.4506391565108314,-2.216368498883152,-0.14854722194256098,-0.14719207609691964,-0.04274484525255218,0.89737250193142,-0.41379871661064205
1664959677.382,17362,1664959677,380289793,vive/reference,vive/tracker_1,0.45044426678771265,-2.2164222836458336,-0.1484931697025078,-0.1471242752959318,-0.04273967894697733,0.8973470379029823,-0.4138786061303909
1664959677.4019482,17363,1664959677,400345087,vive/reference,vive/tracker_1,0.45054595347254867,-2.2164334290274033,-0.1484761397594787,-0.14715761030826874,-0.04276803358042597,0.8973305912469518,-0.41389944022113345
1664959677.420894,17364,1664959677,420333624,vive/reference,vive/tracker_1,0.45066208870827285,-2.216368330559572,-0.1484602468268741,-0.14714712898348492,-0.042734155672433716,0.8973688353626028,-0.41382375252058906
1664959677.4416647,17365,1664959677,440358877,vive/reference,vive/tracker_1,0.45065307625973383,-2.21634843751822,-0.1484860591512578,-0.14716746099759792,-0.0426931550018326,0.8973839216719393,-0.41378805908384997
1664959677.4615648,17366,1664959677,460367918,vive/reference,vive/tracker_1,0.4505900602869073,-2.2165027922419553,-0.148391328601289,-0.1471577665129601,-0.042698444044130424,0.8973545687711442,-0.4138546140319593
1664959677.4810042,17367,1664959677,480321646,vive/reference,vive/tracker_1,0.4507090229645947,-2.2164362604270726,-0.14832043112748217,-0.14716233048282795,-0.0426810624717085,0.8974022661538519,-0.41375130505406466
1664959677.5024486,17368,1664959677,500329018,vive/reference,vive/tracker_1,0.45066587328167196,-2.2163655079530025,-0.14837311153856936,-0.1470708298513489,-0.04263987003406719,0.8973951018307519,-0.41380368080705476
1664959677.5219967,17369,1664959677,520328999,vive/reference,vive/tracker_1,0.45066902793840247,-2.2163972223466293,-0.1483869390540291,-0.14711154850933028,-0.04263140160668477,0.8974099024750845,-0.41375789754429876
1664959677.5417275,17370,1664959677,540327787,vive/reference,vive/tracker_1,0.45066608169298905,-2.2165010121767867,-0.1483200444150774,-0.14708746228995323,-0.04265418890839684,0.8974052399642518,-0.4137742733607893
1664959677.5611312,17371,1664959677,560346365,vive/reference,vive/tracker_1,0.4506009148636696,-2.2164879795145485,-0.14839916192985347,-0.1470790986467908,-0.042692195964743745,0.8974056498954095,-0.4137724354673311
1664959677.5810733,17372,1664959677,580332279,vive/reference,vive/tracker_1,0.4506805201988715,-2.2164558930572413,-0.14837752834053086,-0.1470621116279106,-0.04269576052371793,0.8973875037530665,-0.41381748713968847
1664959677.6009169,17373,1664959677,600312233,vive/reference,vive/tracker_1,0.4508023810073085,-2.2163960250359613,-0.148434338667506,-0.14705328801727346,-0.042699420490925816,0.8974023312229451,-0.41378807129274875
1664959677.6214314,17374,1664959677,620315552,vive/reference,vive/tracker_1,0.4507139436557981,-2.2164469587080555,-0.14844150727457706,-0.14703269750122944,-0.0426584586726213,0.897366201700865,-0.4138779862397173
1664959677.6418297,17375,1664959677,640355349,vive/reference,vive/tracker_1,0.45066851395427254,-2.216365851944571,-0.14841691520445366,-0.1470150724096173,-0.04268446086545555,0.8973762296110857,-0.4138598138642885
1664959677.6617875,17376,1664959677,660328865,vive/reference,vive/tracker_1,0.4507072832572516,-2.216337337101892,-0.14842954624655968,-0.14703281468065021,-0.04263488922452846,0.8974000807246963,-0.4138068936136629
1664959677.6817563,17377,1664959677,680278778,vive/reference,vive/tracker_1,0.45066309789031744,-2.2163655023475877,-0.14837990746861696,-0.14705761004500806,-0.042605319253126384,0.8974100051965193,-0.41377957556639483
1664959677.7016726,17378,1664959677,700322866,vive/reference,vive/tracker_1,0.4505934005415939,-2.2165423106376885,-0.14840527180731877,-0.14703658344287762,-0.04260760080756565,0.8973925898996549,-0.4138246234065962
1664959677.7209659,17379,1664959677,720348120,vive/reference,vive/tracker_1,0.45066830536500047,-2.2164935529875667,-0.14843946883266979,-0.14709011359194418,-0.04264197546218934,0.8974215491194724,-0.4137392278468204
1664959677.7424674,17380,1664959677,740345955,vive/reference,vive/tracker_1,0.4507461666869228,-2.216520131761805,-0.1483316378357924,-0.14713023087773552,-0.04262975025495075,0.8973946083503067,-0.4137846488416682
1664959677.7609816,17381,1664959677,760317326,vive/reference,vive/tracker_1,0.4506600328534198,-2.216443953384948,-0.14828753260591387,-0.14711392564563747,-0.042690203685798817,0.8973823951591764,-0.41381067907577246
1664959677.7811565,17382,1664959677,780297995,vive/reference,vive/tracker_1,0.4507413232836395,-2.2163239200432465,-0.14828933252331344,-0.14715844209653522,-0.0426472394260724,0.8973906577016721,-0.41378139750761234
1664959677.801604,17383,1664959677,800340414,vive/reference,vive/tracker_1,0.4508317771589636,-2.216451293908773,-0.14825926274107415,-0.14716774200024813,-0.042655842530114396,0.8973785084425339,-0.41380356016488457
1664959677.8210497,17384,1664959677,820338964,vive/reference,vive/tracker_1,0.45065673986169474,-2.2164592159823022,-0.14832996250242614,-0.14713429685058338,-0.0426513614468598,0.8973794277517513,-0.413813893452854
1664959677.8415303,17385,1664959677,840318918,vive/reference,vive/tracker_1,0.45067185078152483,-2.216365541287244,-0.1482951883117809,-0.14716259046164049,-0.04264334993923477,0.8973896878628744,-0.41378241248481334
1664959677.861904,17386,1664959677,860318184,vive/reference,vive/tracker_1,0.4506194371702825,-2.2165630293736673,-0.14829743301411247,-0.1471616898316664,-0.04269515508537261,0.8973583573501022,-0.4138453559577353
1664959677.8815567,17387,1664959677,880337000,vive/reference,vive/tracker_1,0.45061819861235475,-2.2165134910335906,-0.14840252772713036,-0.14713710506962907,-0.042691585246549646,0.8973833999293725,-0.4138001632520324
1664959677.9012325,17388,1664959677,900332689,vive/reference,vive/tracker_1,0.45054182467016024,-2.216587853583831,-0.1484651292853605,-0.14714309925761276,-0.04257902872854749,0.8974260118796902,-0.4137172079124136
1664959677.9219234,17389,1664959677,920318365,vive/reference,vive/tracker_1,0.450649375256299,-2.216549953147424,-0.14843352426038958,-0.14714893516889266,-0.04253614415562865,0.8974177730784354,-0.41373736842925
1664959677.9419196,17390,1664959677,940322161,vive/reference,vive/tracker_1,0.45061111357706873,-2.2164983987184836,-0.14843085419831725,-0.14714130189463315,-0.04249562825908201,0.8974074205941921,-0.413766715876023
1664959677.9621763,17391,1664959677,960367918,vive/reference,vive/tracker_1,0.4505670252280385,-2.216400331331035,-0.14846504507309577,-0.1471747018643646,-0.0425121139968703,0.8974192568737736,-0.41372747729910003
1664959677.981129,17392,1664959677,980337858,vive/reference,vive/tracker_1,0.4506804233417465,-2.2164097043627873,-0.14836072204349593,-0.14715980141437673,-0.04254389427295352,0.8974119012518054,-0.4137454716009513
1664959678.0015466,17393,1664959678,318289,vive/reference,vive/tracker_1,0.45066161156603335,-2.216446727900859,-0.14836513138851037,-0.14713715562984747,-0.04257846241562538,0.8973877274773028,-0.4138023561591634
1664959678.0218604,17394,1664959678,20316601,vive/reference,vive/tracker_1,0.45068171756333864,-2.216455167544721,-0.14835305759689899,-0.14715343016674098,-0.042636877443131216,0.8973729838947266,-0.41382255509847565
1664959678.0411623,17395,1664959678,40348530,vive/reference,vive/tracker_1,0.45069626438441124,-2.2164289924278577,-0.14852567772606928,-0.14714420153962782,-0.042632136090226286,0.8973485854139938,-0.41387925444141627
1664959678.060831,17396,1664959678,60312986,vive/reference,vive/tracker_1,0.45066680841635987,-2.2164488147798442,-0.14850247308374032,-0.14712068913326498,-0.04254913343323527,0.8973814594652625,-0.41382488361565073
1664959678.0809882,17397,1664959678,80313921,vive/reference,vive/tracker_1,0.4506620859370136,-2.2165096452320254,-0.14845298492210324,-0.14712123948186423,-0.0426669150590584,0.8973668959965218,-0.4138441224551528
1664959678.1020412,17398,1664959678,100314617,vive/reference,vive/tracker_1,0.4506666732903055,-2.216367527867941,-0.14845249949283756,-0.147129194839261,-0.04261693016574225,0.8973571206025837,-0.41386762001241284
1664959678.1217072,17399,1664959678,120324850,vive/reference,vive/tracker_1,0.4508022338638795,-2.2163173179446685,-0.14825494950515639,-0.1471626476127344,-0.042608076791920635,0.897382701724708,-0.41380116956840934
1664959678.1416962,17400,1664959678,140318632,vive/reference,vive/tracker_1,0.4507488839513425,-2.2164386129941493,-0.14822222106407112,-0.14716092309404977,-0.04268986596444874,0.8973445243631748,-0.41387613182982363
1664959678.161234,17401,1664959678,160332680,vive/reference,vive/tracker_1,0.4507796837963778,-2.2165167314757834,-0.14819769280572004,-0.1471305091606484,-0.042679339878435946,0.8973300429234015,-0.4139194456872036
1664959678.1820142,17402,1664959678,180297613,vive/reference,vive/tracker_1,0.4506775659683815,-2.2164500204765867,-0.14830143960642594,-0.14709453524553495,-0.04263168207649046,0.8973869023053898,-0.4138138723045422
1664959678.201405,17403,1664959678,200327873,vive/reference,vive/tracker_1,0.4505591963183131,-2.2165392168791977,-0.14840744372697712,-0.14707939738220416,-0.04260466411005759,0.8973755509911628,-0.41384663425284424
1664959678.2211275,17404,1664959678,220347881,vive/reference,vive/tracker_1,0.45042347847671693,-2.2166329385170194,-0.1484662180022216,-0.14701265692438603,-0.042616406734207274,0.8973654564591005,-0.41389103755972345
1664959678.2414453,17405,1664959678,240332127,vive/reference,vive/tracker_1,0.45064305767612756,-2.21643691020069,-0.1483662115012332,-0.14713272819062617,-0.04259874161073776,0.8973761571352857,-0.4138270207633521
1664959678.2610085,17406,1664959678,260349512,vive/reference,vive/tracker_1,0.45075441756292967,-2.216376213027668,-0.14824644436398504,-0.14717969291647748,-0.042589498531798,0.8973783172402261,-0.4138064984629034
1664959678.2810748,17407,1664959678,280342102,vive/reference,vive/tracker_1,0.45075411576841007,-2.2165064956754135,-0.14834435805686974,-0.14717528806435504,-0.04259609341921192,0.8974048622410312,-0.41374988772574045
1664959678.3009684,17408,1664959678,300314426,vive/reference,vive/tracker_1,0.45067434314697974,-2.2165810355841886,-0.1484603915410876,-0.14716321697358176,-0.04265192198192436,0.8973915710413221,-0.4137772200027601
1664959678.3211555,17409,1664959678,320320368,vive/reference,vive/tracker_1,0.4507281872696993,-2.216586565088403,-0.14842897095401142,-0.14719444755339556,-0.04265229500153425,0.8973756034703482,-0.41380071210062774
1664959678.341299,17410,1664959678,340358257,vive/reference,vive/tracker_1,0.45077903059345137,-2.2163862554922,-0.14835031860479786,-0.14721809045197692,-0.04265172964088931,0.8973711358216475,-0.41380203664628556
1664959678.3620417,17411,1664959678,360364437,vive/reference,vive/tracker_1,0.45069740262419145,-2.2164415539001614,-0.14841105986089076,-0.14719696856445774,-0.042591186442599877,0.8973889001811216,-0.413777255905246
1664959678.3817513,17412,1664959678,380322933,vive/reference,vive/tracker_1,0.45063884217045236,-2.2165428049112563,-0.14847578930062122,-0.14721457393877108,-0.04261350388621726,0.8973691287914984,-0.41381162305681957
1664959678.4014015,17413,1664959678,400315523,vive/reference,vive/tracker_1,0.45065460330744833,-2.216503370614314,-0.14840268222272757,-0.14723856582912664,-0.04264336760735046,0.8973734133379416,-0.41379066253796937
1664959678.4209068,17414,1664959678,420318842,vive/reference,vive/tracker_1,0.450741139460044,-2.216443674573527,-0.1483857801325965,-0.14722125729698904,-0.04266233820914464,0.8973743387355315,-0.41379288253702995
1664959678.4423115,17415,1664959678,440330029,vive/reference,vive/tracker_1,0.4506599752734426,-2.216538946319292,-0.14847038133803236,-0.1472308183482648,-0.04267483068534256,0.8973781072314828,-0.41378002717858475
1664959678.4608867,17416,1664959678,460324049,vive/reference,vive/tracker_1,0.45064582143577403,-2.2164106985046588,-0.14845874061429276,-0.14720439570229837,-0.04266686880924367,0.8973928289914694,-0.4137583075452283
1664959678.4809463,17417,1664959678,480326653,vive/reference,vive/tracker_1,0.4506705622958298,-2.2165223123552806,-0.14831369478258916,-0.14720041492310565,-0.0427022173832966,0.8973468834925707,-0.4138557441059955
1664959678.5008404,17418,1664959678,500326395,vive/reference,vive/tracker_1,0.4507300147472393,-2.216442522128171,-0.14835718016778499,-0.1472145765519564,-0.04268152941374295,0.897354104545917,-0.4138371764597816
1664959678.5211694,17419,1664959678,520354271,vive/reference,vive/tracker_1,0.4506934288365849,-2.2164514430855022,-0.14839253250240558,-0.14720977540411562,-0.04267823052386377,0.8973641830634527,-0.4138173692084448
1664959678.5415344,17420,1664959678,540322781,vive/reference,vive/tracker_1,0.4506937939001856,-2.2164552332224288,-0.14844312157925943,-0.1471870805473316,-0.04261840907744266,0.8973784820818418,-0.41380058949591825
1664959678.5618682,17421,1664959678,560325384,vive/reference,vive/tracker_1,0.4507370576521217,-2.2164920849873964,-0.14843863828618487,-0.14719979547271933,-0.04257775245870338,0.8973939756558242,-0.41376664521954115
1664959678.5817914,17422,1664959678,580316067,vive/reference,vive/tracker_1,0.4507202398209029,-2.216583721985901,-0.14842075454128922,-0.14719895143750783,-0.042674156355272386,0.8973847409288316,-0.41377706183546653
1664959678.60188,17423,1664959678,600338459,vive/reference,vive/tracker_1,0.45067317873764234,-2.2164964585733626,-0.1483545561603341,-0.14719746052789778,-0.04268962730794193,0.8973640756630887,-0.4138208227800833
1664959678.6211283,17424,1664959678,620327234,vive/reference,vive/tracker_1,0.45068155459547676,-2.2164630008248305,-0.14828407548934308,-0.14720481544878994,-0.04264983991450297,0.8973724011133037,-0.41380420710736543
1664959678.64182,17425,1664959678,640311718,vive/reference,vive/tracker_1,0.45073557230796957,-2.216434600162558,-0.1482426773504959,-0.1471546275454892,-0.04264824630349684,0.8973896852905936,-0.41378472620970286
1664959678.6610506,17426,1664959678,660351992,vive/reference,vive/tracker_1,0.45072787710241236,-2.21655506871152,-0.14827058206038757,-0.14715530925764647,-0.0426458676816143,0.8973722866895545,-0.41382246983349086
1664959678.6820238,17427,1664959678,680326939,vive/reference,vive/tracker_1,0.4506940810937292,-2.2165390615688314,-0.14834807183808918,-0.14712995885090735,-0.042640943517063185,0.8973876569710533,-0.413798667626229
1664959678.7016447,17428,1664959678,700312376,vive/reference,vive/tracker_1,0.45063985680229,-2.2165692848173295,-0.14835628112854193,-0.14710160800836264,-0.042691916358980314,0.8973650172050713,-0.4138526161248415
1664959678.7209573,17429,1664959678,720314980,vive/reference,vive/tracker_1,0.4505980362864752,-2.2165387477949094,-0.14838586649741003,-0.14706786815764566,-0.042724275457084016,0.8973691956927394,-0.41385218843490307
1664959678.7412155,17430,1664959678,740345955,vive/reference,vive/tracker_1,0.4506888187371205,-2.2163995464923776,-0.14827149903083958,-0.14702374772470872,-0.04269999788685286,0.8973537331888908,-0.41390388506722614
1664959678.7611198,17431,1664959678,760318756,vive/reference,vive/tracker_1,0.450781519070939,-2.2164045235616783,-0.14823515277988486,-0.14702985670871643,-0.04263806584470137,0.8973813958204087,-0.41384812245795655
1664959678.7811968,17432,1664959678,780342579,vive/reference,vive/tracker_1,0.4508044012289505,-2.216453977580742,-0.14821747147369768,-0.14701141516010507,-0.042646535388159074,0.8973776957955284,-0.41386182937598404
1664959678.802716,17433,1664959678,800333023,vive/reference,vive/tracker_1,0.4508196166321141,-2.2165127681200687,-0.14815678575298952,-0.14701610736756188,-0.04270008782968812,0.8973566600059129,-0.4139002810228423
1664959678.821845,17434,1664959678,820317745,vive/reference,vive/tracker_1,0.4507578727516639,-2.2166406984255627,-0.14835435065856517,-0.14698002039515706,-0.04274702564996244,0.8973708864864077,-0.41387739946411517
1664959678.8418632,17435,1664959678,840352774,vive/reference,vive/tracker_1,0.4507737570013093,-2.216572137511258,-0.14834284797378716,-0.14700236241613862,-0.042773568757216746,0.8973506530817379,-0.41391058243818135
1664959678.861993,17436,1664959678,860334873,vive/reference,vive/tracker_1,0.4507111168995366,-2.216386899405185,-0.14833402624027459,-0.14696528632481543,-0.04276748971363492,0.8973528709888761,-0.41391953913251556
1664959678.881811,17437,1664959678,880322933,vive/reference,vive/tracker_1,0.4506418183636576,-2.216378339325894,-0.14832811799016055,-0.14697153227208504,-0.04275699765596422,0.8973599007067121,-0.4139032230214941
1664959678.9016895,17438,1664959678,900316238,vive/reference,vive/tracker_1,0.45057184365239533,-2.2165686120149344,-0.1483922408028957,-0.14694575706112561,-0.04276621861127225,0.8973789664918219,-0.41387006214842204
