Time,header.seq,header.stamp.secs,header.stamp.nsecs,header.frame_id,orientation.x,orientation.y,orientation.z,orientation.w,orientation_covariance_0,orientation_covariance_1,orientation_covariance_2,orientation_covariance_3,orientation_covariance_4,orientation_covariance_5,orientation_covariance_6,orientation_covariance_7,orientation_covariance_8,angular_velocity.x,angular_velocity.y,angular_velocity.z,angular_velocity_covariance_0,angular_velocity_covariance_1,angular_velocity_covariance_2,angular_velocity_covariance_3,angular_velocity_covariance_4,angular_velocity_covariance_5,angular_velocity_covariance_6,angular_velocity_covariance_7,angular_velocity_covariance_8,linear_acceleration.x,linear_acceleration.y,linear_acceleration.z,linear_acceleration_covariance_0,linear_acceleration_covariance_1,linear_acceleration_covariance_2,linear_acceleration_covariance_3,linear_acceleration_covariance_4,linear_acceleration_covariance_5,linear_acceleration_covariance_6,linear_acceleration_covariance_7,linear_acceleration_covariance_8
1664959676.9869707,2574,1664959676,974539702,Waveshare_Sense_HAT_B/IMU,-0.7720806301617564,-0.6354606736920928,0.008443032126660623,0.0031540336594602686,-1.0,-1.0,-1.0,-1.0,-1.0,-1.0,-1.0,-1.0,-1.0,-0.010652644360316951,0.0026631610900792377,0.00985369603329318,0.0,0.0,0.0,0.0,0.0,0.0,0.0,0.0,0.0,-0.16645385742187502,-0.3879931640625,10.00399658203125,0.0,0.0,0.0,0.0,0.0,0.0,0.0,0.0,0.0
1664959676.9990766,2575,1664959676,986727491,Waveshare_Sense_HAT_B/IMU,-0.7721084252221924,-0.6354266967105484,0.008454528253290097,0.003164452628977801,-1.0,-1.0,-1.0,-1.0,-1.0,-1.0,-1.0,-1.0,-1.0,-0.0077231671612297895,-0.0026631610900792377,0.0042610577441267805,0.0,0.0,0.0,0.0,0.0,0.0,0.0,0.0,0.0,-0.16046630859375,-0.3496728515625,9.98244140625,0.0,0.0,0.0,0.0,0.0,0.0,0.0,0.0,0.0
1664959677.0111406,2576,1664959676,998896409,Waveshare_Sense_HAT_B/IMU,-0.772152981171049,-0.6353719671345966,0.008490310946545334,0.0031861682638566133,-1.0,-1.0,-1.0,-1.0,-1.0,-1.0,-1.0,-1.0,-1.0,-0.0053263221801584755,-0.0055926382891664,0.008522115488253561,0.0,0.0,0.0,0.0,0.0,0.0,0.0,0.0,0.0,-0.1389111328125,-0.38200561523437504,9.981243896484376,0.0,0.0,0.0,0.0,0.0,0.0,0.0,0.0,0.0
1664959677.02326,2577,1664959677,11004940,Waveshare_Sense_HAT_B/IMU,-0.7722043166048942,-0.6353099904643333,0.008460223306266591,0.0031834029881611754,-1.0,-1.0,-1.0,-1.0,-1.0,-1.0,-1.0,-1.0,-1.0,-0.013049489341388266,0.0002663161090079238,0.010386328251309028,0.0,0.0,0.0,0.0,0.0,0.0,0.0,0.0,0.0,-0.130528564453125,-0.34248779296875004,9.97525634765625,0.0,0.0,0.0,0.0,0.0,0.0,0.0,0.0,0.0
1664959677.0353692,2578,1664959677,23112526,Waveshare_Sense_HAT_B/IMU,-0.7722832192087539,-0.6352142301240311,0.0084379681520781,0.0032112100465278982,-1.0,-1.0,-1.0,-1.0,-1.0,-1.0,-1.0,-1.0,-1.0,-0.007989483270237713,0.002396844981071314,0.01757686319452297,0.0,0.0,0.0,0.0,0.0,0.0,0.0,0.0,0.0,-0.118553466796875,-0.335302734375,9.980046386718751,0.0,0.0,0.0,0.0,0.0,0.0,0.0,0.0,0.0
1664959677.047521,2579,1664959677,35216205,Waveshare_Sense_HAT_B/IMU,-0.7723035625791352,-0.6351901608749434,0.008392907123337153,0.0031977906839612594,-1.0,-1.0,-1.0,-1.0,-1.0,-1.0,-1.0,-1.0,-1.0,-0.014913702104443732,0.002396844981071314,0.0034621094171030094,0.0,0.0,0.0,0.0,0.0,0.0,0.0,0.0,0.0,-0.12094848632812501,-0.3305126953125,9.96567626953125,0.0,0.0,0.0,0.0,0.0,0.0,0.0,0.0,0.0
1664959677.0596588,2580,1664959677,47370679,Waveshare_Sense_HAT_B/IMU,-0.7723244396277137,-0.6351650172921204,0.008379303857202815,0.0031855971036560634,-1.0,-1.0,-1.0,-1.0,-1.0,-1.0,-1.0,-1.0,-1.0,-0.0111852765783328,-0.0007989483270237714,0.0034621094171030094,0.0,0.0,0.0,0.0,0.0,0.0,0.0,0.0,0.0,-0.140108642578125,-0.319735107421875,9.980046386718751,0.0,0.0,0.0,0.0,0.0,0.0,0.0,0.0,0.0
1664959677.0717494,2581,1664959677,59494302,Waveshare_Sense_HAT_B/IMU,-0.7723649235121612,-0.635116238471023,0.008349875696117006,0.0031730323558401235,-1.0,-1.0,-1.0,-1.0,-1.0,-1.0,-1.0,-1.0,-1.0,-0.012516857123372417,0.0015978966540475428,0.007989483270237713,0.0,0.0,0.0,0.0,0.0,0.0,0.0,0.0,0.0,-0.16525634765625,-0.30895751953125,9.992021484375,0.0,0.0,0.0,0.0,0.0,0.0,0.0,0.0,0.0
1664959677.0838451,2582,1664959677,71599684,Waveshare_Sense_HAT_B/IMU,-0.7723629404096412,-0.6351185422607332,0.008368889402066015,0.0031443995532161534,-1.0,-1.0,-1.0,-1.0,-1.0,-1.0,-1.0,-1.0,-1.0,-0.010120012142301104,-0.004527373853134705,-0.0031957933080950856,0.0,0.0,0.0,0.0,0.0,0.0,0.0,0.0,0.0,-0.22153930664062502,-0.31255004882812504,9.98962646484375,0.0,0.0,0.0,0.0,0.0,0.0,0.0,0.0,0.0
1664959677.0961158,2583,1664959677,83699011,Waveshare_Sense_HAT_B/IMU,-0.7723623107510403,-0.635119237489649,0.008385691939564593,0.0031137232655990828,-1.0,-1.0,-1.0,-1.0,-1.0,-1.0,-1.0,-1.0,-1.0,-0.012250541014364494,-0.0042610577441267805,-0.0029294771990871615,0.0,0.0,0.0,0.0,0.0,0.0,0.0,0.0,0.0,-0.229921875,-0.34727783203125,9.990823974609375,0.0,0.0,0.0,0.0,0.0,0.0,0.0,0.0,0.0
1664959677.1082382,2584,1664959677,95968243,Waveshare_Sense_HAT_B/IMU,-0.772335866521348,-0.6351515214875214,0.0083696245002006,0.0031310417644396958,-1.0,-1.0,-1.0,-1.0,-1.0,-1.0,-1.0,-1.0,-1.0,-0.009321063815277333,0.004527373853134705,-0.00985369603329318,0.0,0.0,0.0,0.0,0.0,0.0,0.0,0.0,0.0,-0.24069946289062502,-0.335302734375,9.986033935546876,0.0,0.0,0.0,0.0,0.0,0.0,0.0,0.0,0.0
1664959677.1203349,2585,1664959677,108096014,Waveshare_Sense_HAT_B/IMU,-0.7723133052484344,-0.6351782770866004,0.008399053598586271,0.0031891616742153847,-1.0,-1.0,-1.0,-1.0,-1.0,-1.0,-1.0,-1.0,-1.0,0.0005326322180158476,0.0029294771990871615,-0.008788431597261484,0.0,0.0,0.0,0.0,0.0,0.0,0.0,0.0,0.0,-0.23710693359375,-0.33171020507812504,9.980046386718751,0.0,0.0,0.0,0.0,0.0,0.0,0.0,0.0,0.0
1664959677.1324759,2586,1664959677,120196452,Waveshare_Sense_HAT_B/IMU,-0.7722993738590989,-0.6351938070479475,0.00850606115797561,0.0031861494559091846,-1.0,-1.0,-1.0,-1.0,-1.0,-1.0,-1.0,-1.0,-1.0,0.0013315805450396189,-0.012516857123372417,-0.006391586616190171,0.0,0.0,0.0,0.0,0.0,0.0,0.0,0.0,0.0,-0.2442919921875,-0.32332763671875003,9.981243896484376,0.0,0.0,0.0,0.0,0.0,0.0,0.0,0.0,0.0
1664959677.144574,2587,1664959677,132307760,Waveshare_Sense_HAT_B/IMU,-0.7722921322294055,-0.6352018045239899,0.008576497688015218,0.0031581186539810023,-1.0,-1.0,-1.0,-1.0,-1.0,-1.0,-1.0,-1.0,-1.0,-0.0053263221801584755,-0.009587379924285256,-0.004527373853134705,0.0,0.0,0.0,0.0,0.0,0.0,0.0,0.0,0.0,-0.257464599609375,-0.324525146484375,9.987231445312501,0.0,0.0,0.0,0.0,0.0,0.0,0.0,0.0,0.0
1664959677.1567106,2588,1664959677,144415883,Waveshare_Sense_HAT_B/IMU,-0.7722605494336565,-0.6352391546190321,0.008665087346785257,0.003126737692316829,-1.0,-1.0,-1.0,-1.0,-1.0,-1.0,-1.0,-1.0,-1.0,-0.003728425526110933,-0.012250541014364494,-0.010386328251309028,0.0,0.0,0.0,0.0,0.0,0.0,0.0,0.0,0.0,-0.24908203125,-0.32332763671875003,9.978848876953126,0.0,0.0,0.0,0.0,0.0,0.0,0.0,0.0,0.0
1664959677.1688356,2589,1664959677,156541988,Waveshare_Sense_HAT_B/IMU,-0.7721745130050038,-0.635342350825925,0.008782382005409968,0.0030803374463652853,-1.0,-1.0,-1.0,-1.0,-1.0,-1.0,-1.0,-1.0,-1.0,-0.0031957933080950856,-0.01810949541253882,-0.023968449810713142,0.0,0.0,0.0,0.0,0.0,0.0,0.0,0.0,0.0,-0.233514404296875,-0.33410522460937503,9.9584912109375,0.0,0.0,0.0,0.0,0.0,0.0,0.0,0.0,0.0
1664959677.181022,2590,1664959677,168673388,Waveshare_Sense_HAT_B/IMU,-0.7720964497574173,-0.6354363210866338,0.008867384138055861,0.0030205321425984433,-1.0,-1.0,-1.0,-1.0,-1.0,-1.0,-1.0,-1.0,-1.0,-0.008255799379245638,-0.01810949541253882,-0.022104237047657675,0.0,0.0,0.0,0.0,0.0,0.0,0.0,0.0,0.0,-0.18561401367187502,-0.336500244140625,9.97046630859375,0.0,0.0,0.0,0.0,0.0,0.0,0.0,0.0,0.0
1664959677.1930943,2591,1664959677,180836695,Waveshare_Sense_HAT_B/IMU,-0.7720039704090716,-0.6355471403586405,0.00900764311284724,0.002926503055717919,-1.0,-1.0,-1.0,-1.0,-1.0,-1.0,-1.0,-1.0,-1.0,-0.0066579027251980945,-0.028495823663847845,-0.025566346464760685,0.0,0.0,0.0,0.0,0.0,0.0,0.0,0.0,0.0,-0.188009033203125,-0.33290771484375004,9.9968115234375,0.0,0.0,0.0,0.0,0.0,0.0,0.0,0.0,0.0
1664959677.2051847,2592,1664959677,192951985,Waveshare_Sense_HAT_B/IMU,-0.7719525038881618,-0.6356083533966836,0.00915334465416101,0.00275120242730276,-1.0,-1.0,-1.0,-1.0,-1.0,-1.0,-1.0,-1.0,-1.0,-0.013315805450396189,-0.036751623043093484,-0.014913702104443732,0.0,0.0,0.0,0.0,0.0,0.0,0.0,0.0,0.0,-0.19399658203125,-0.27542724609375,10.002799072265626,0.0,0.0,0.0,0.0,0.0,0.0,0.0,0.0,0.0
1664959677.2173152,2593,1664959677,205052016,Waveshare_Sense_HAT_B/IMU,-0.7718767212818453,-0.6356994572172654,0.009257957741334076,0.0026110257222831832,-1.0,-1.0,-1.0,-1.0,-1.0,-1.0,-1.0,-1.0,-1.0,-0.014381069886427884,-0.02902845588186369,-0.022104237047657675,0.0,0.0,0.0,0.0,0.0,0.0,0.0,0.0,0.0,-0.22153930664062502,-0.288599853515625,10.000404052734375,0.0,0.0,0.0,0.0,0.0,0.0,0.0,0.0,0.0
1664959677.2294672,2594,1664959677,217162824,Waveshare_Sense_HAT_B/IMU,-0.7718255934553985,-0.635760433950273,0.00935502467040915,0.002531288999466723,-1.0,-1.0,-1.0,-1.0,-1.0,-1.0,-1.0,-1.0,-1.0,-0.0077231671612297895,-0.02103897261162598,-0.015712650431467502,0.0,0.0,0.0,0.0,0.0,0.0,0.0,0.0,0.0,-0.23231689453125,-0.29219238281250004,9.978848876953126,0.0,0.0,0.0,0.0,0.0,0.0,0.0,0.0,0.0
1664959677.2415683,2595,1664959677,229303058,Waveshare_Sense_HAT_B/IMU,-0.7718340923613566,-0.6357487303246635,0.009453162098902243,0.0025146541772605694,-1.0,-1.0,-1.0,-1.0,-1.0,-1.0,-1.0,-1.0,-1.0,-0.0002663161090079238,-0.016511598758491276,-0.0015978966540475428,0.0,0.0,0.0,0.0,0.0,0.0,0.0,0.0,0.0,-0.22752685546875,-0.29338989257812503,9.988428955078126,0.0,0.0,0.0,0.0,0.0,0.0,0.0,0.0,0.0
1664959677.2536871,2596,1664959677,241412311,Waveshare_Sense_HAT_B/IMU,-0.7718627458993241,-0.6357124912814893,0.009559711985204068,0.0024782712114712765,-1.0,-1.0,-1.0,-1.0,-1.0,-1.0,-1.0,-1.0,-1.0,-0.0026631610900792377,-0.01970739206658636,0.0034621094171030094,0.0,0.0,0.0,0.0,0.0,0.0,0.0,0.0,0.0,-0.228724365234375,-0.3113525390625,9.981243896484376,0.0,0.0,0.0,0.0,0.0,0.0,0.0,0.0,0.0
1664959677.265786,2597,1664959677,253524545,Waveshare_Sense_HAT_B/IMU,-0.7719360142939826,-0.6356225358934365,0.009629328700885178,0.0024612454342293577,-1.0,-1.0,-1.0,-1.0,-1.0,-1.0,-1.0,-1.0,-1.0,-0.0042610577441267805,-0.014647385995435807,0.014381069886427884,0.0,0.0,0.0,0.0,0.0,0.0,0.0,0.0,0.0,-0.204774169921875,-0.316142578125,9.998009033203125,0.0,0.0,0.0,0.0,0.0,0.0,0.0,0.0,0.0
1664959677.2778752,2598,1664959677,265626261,Waveshare_Sense_HAT_B/IMU,-0.7720546100249889,-0.635477846059563,0.009665979087690596,0.0024809584714719263,-1.0,-1.0,-1.0,-1.0,-1.0,-1.0,-1.0,-1.0,-1.0,-0.002396844981071314,-0.006391586616190171,0.02609897868277653,0.0,0.0,0.0,0.0,0.0,0.0,0.0,0.0,0.0,-0.195194091796875,-0.30895751953125,9.998009033203125,0.0,0.0,0.0,0.0,0.0,0.0,0.0,0.0,0.0
1664959677.2900646,2599,1664959677,277728828,Waveshare_Sense_HAT_B/IMU,-0.7721827885932169,-0.6353223932520287,0.009652185141582318,0.00245620742415527,-1.0,-1.0,-1.0,-1.0,-1.0,-1.0,-1.0,-1.0,-1.0,-0.013315805450396189,-0.004793689962142628,0.028495823663847845,0.0,0.0,0.0,0.0,0.0,0.0,0.0,0.0,0.0,-0.18920654296875,-0.316142578125,9.981243896484376,0.0,0.0,0.0,0.0,0.0,0.0,0.0,0.0,0.0
1664959677.3022504,2600,1664959677,289894562,Waveshare_Sense_HAT_B/IMU,-0.7722964688205489,-0.6351846994366689,0.00961595261626833,0.002468866975213571,-1.0,-1.0,-1.0,-1.0,-1.0,-1.0,-1.0,-1.0,-1.0,-0.010918960469324876,0.0021305288720633903,0.02476739813773691,0.0,0.0,0.0,0.0,0.0,0.0,0.0,0.0,0.0,-0.19639160156250002,-0.31374755859375003,9.97046630859375,0.0,0.0,0.0,0.0,0.0,0.0,0.0,0.0,0.0
1664959677.3143086,2601,1664959677,302057888,Waveshare_Sense_HAT_B/IMU,-0.7724125706726068,-0.6350436593688544,0.009610834301109336,0.002450148237650985,-1.0,-1.0,-1.0,-1.0,-1.0,-1.0,-1.0,-1.0,-1.0,-0.00985369603329318,-0.0055926382891664,0.025566346464760685,0.0,0.0,0.0,0.0,0.0,0.0,0.0,0.0,0.0,-0.17483642578125,-0.276624755859375,9.972861328125001,0.0,0.0,0.0,0.0,0.0,0.0,0.0,0.0,0.0
1664959677.3264394,2602,1664959677,314168103,Waveshare_Sense_HAT_B/IMU,-0.7725146163117473,-0.634919414304635,0.009626759022643832,0.0024146292661303406,-1.0,-1.0,-1.0,-1.0,-1.0,-1.0,-1.0,-1.0,-1.0,-0.00985369603329318,-0.011717908796348646,0.021837920938649752,0.0,0.0,0.0,0.0,0.0,0.0,0.0,0.0,0.0,-0.1484912109375,-0.27422973632812503,9.992021484375,0.0,0.0,0.0,0.0,0.0,0.0,0.0,0.0,0.0
1664959677.3385303,2603,1664959677,326282504,Waveshare_Sense_HAT_B/IMU,-0.7726116366332092,-0.6348016598950962,0.009620093268697989,0.002359097048867665,-1.0,-1.0,-1.0,-1.0,-1.0,-1.0,-1.0,-1.0,-1.0,-0.01411475377741996,-0.011984224905356571,0.020506340393610132,0.0,0.0,0.0,0.0,0.0,0.0,0.0,0.0,0.0,-0.13172607421875002,-0.26105712890625,9.974058837890626,0.0,0.0,0.0,0.0,0.0,0.0,0.0,0.0,0.0
1664959677.3507009,2604,1664959677,338394127,Waveshare_Sense_HAT_B/IMU,-0.7726489213633764,-0.6347581951156127,0.009509637560435076,0.002290162232221287,-1.0,-1.0,-1.0,-1.0,-1.0,-1.0,-1.0,-1.0,-1.0,-0.025566346464760685,-0.0005326322180158476,0.0055926382891664,0.0,0.0,0.0,0.0,0.0,0.0,0.0,0.0,0.0,-0.118553466796875,-0.24668701171875002,9.987231445312501,0.0,0.0,0.0,0.0,0.0,0.0,0.0,0.0,0.0
1664959677.3628383,2605,1664959677,350532287,Waveshare_Sense_HAT_B/IMU,-0.7726510361087077,-0.6347574255243305,0.00941774843089328,0.002166369395304293,-1.0,-1.0,-1.0,-1.0,-1.0,-1.0,-1.0,-1.0,-1.0,-0.029294771990871615,-0.007456851052221866,-0.0029294771990871615,0.0,0.0,0.0,0.0,0.0,0.0,0.0,0.0,0.0,-0.1293310546875,-0.22034179687500002,9.9680712890625,0.0,0.0,0.0,0.0,0.0,0.0,0.0,0.0,0.0
1664959677.3749154,2606,1664959677,362661298,Waveshare_Sense_HAT_B/IMU,-0.7726344437203663,-0.6347792748947569,0.00933558493645478,0.002033567038700965,-1.0,-1.0,-1.0,-1.0,-1.0,-1.0,-1.0,-1.0,-1.0,-0.029294771990871615,-0.008788431597261484,-0.007989483270237713,0.0,0.0,0.0,0.0,0.0,0.0,0.0,0.0,0.0,-0.162861328125,-0.209564208984375,9.972861328125001,0.0,0.0,0.0,0.0,0.0,0.0,0.0,0.0,0.0
1664959677.3870137,2607,1664959677,374765625,Waveshare_Sense_HAT_B/IMU,-0.7725826308530455,-0.6348435647937667,0.009266120263287634,0.001966153451726787,-1.0,-1.0,-1.0,-1.0,-1.0,-1.0,-1.0,-1.0,-1.0,-0.02024002428460221,-0.003994741635118856,-0.017044230976507122,0.0,0.0,0.0,0.0,0.0,0.0,0.0,0.0,0.0,-0.16525634765625,-0.21076171875000002,9.980046386718751,0.0,0.0,0.0,0.0,0.0,0.0,0.0,0.0,0.0
1664959677.3991985,2608,1664959677,386868452,Waveshare_Sense_HAT_B/IMU,-0.7725136784009311,-0.634928591624859,0.00920282752751264,0.0018995226334685767,-1.0,-1.0,-1.0,-1.0,-1.0,-1.0,-1.0,-1.0,-1.0,-0.02103897261162598,-0.0042610577441267805,-0.02103897261162598,0.0,0.0,0.0,0.0,0.0,0.0,0.0,0.0,0.0,-0.162861328125,-0.24548950195312502,9.99920654296875,0.0,0.0,0.0,0.0,0.0,0.0,0.0,0.0,0.0
1664959677.4112887,2609,1664959677,399037778,Waveshare_Sense_HAT_B/IMU,-0.7725004697902312,-0.6349459732768835,0.009125426034791764,0.0018335193008789802,-1.0,-1.0,-1.0,-1.0,-1.0,-1.0,-1.0,-1.0,-1.0,-0.025033714246744835,-0.0015978966540475428,-0.006391586616190171,0.0,0.0,0.0,0.0,0.0,0.0,0.0,0.0,0.0,-0.154478759765625,-0.310155029296875,9.99920654296875,0.0,0.0,0.0,0.0,0.0,0.0,0.0,0.0,0.0
1664959677.423416,2610,1664959677,411149198,Waveshare_Sense_HAT_B/IMU,-0.7724927556296287,-0.634957011579098,0.009018530966154788,0.0017894260243591586,-1.0,-1.0,-1.0,-1.0,-1.0,-1.0,-1.0,-1.0,-1.0,-0.02583266257376861,0.004527373853134705,-0.005060006071150552,0.0,0.0,0.0,0.0,0.0,0.0,0.0,0.0,0.0,-0.15687377929687502,-0.319735107421875,9.998009033203125,0.0,0.0,0.0,0.0,0.0,0.0,0.0,0.0,0.0
1664959677.435496,2611,1664959677,423257580,Waveshare_Sense_HAT_B/IMU,-0.7724721664965002,-0.6349832429409398,0.008933993152703368,0.0017935826599902924,-1.0,-1.0,-1.0,-1.0,-1.0,-1.0,-1.0,-1.0,-1.0,-0.01810949541253882,0.007456851052221866,-0.007989483270237713,0.0,0.0,0.0,0.0,0.0,0.0,0.0,0.0,0.0,-0.16046630859375,-0.33290771484375004,10.005194091796875,0.0,0.0,0.0,0.0,0.0,0.0,0.0,0.0,0.0
1664959677.4476879,2612,1664959677,435359648,Waveshare_Sense_HAT_B/IMU,-0.7724526138670659,-0.635007370417311,0.008904355203335594,0.0018196988878459077,-1.0,-1.0,-1.0,-1.0,-1.0,-1.0,-1.0,-1.0,-1.0,-0.00985369603329318,0.0029294771990871615,-0.007989483270237713,0.0,0.0,0.0,0.0,0.0,0.0,0.0,0.0,0.0,-0.17244140625,-0.32811767578125,9.987231445312501,0.0,0.0,0.0,0.0,0.0,0.0,0.0,0.0,0.0
1664959677.459815,2613,1664959677,447478159,Waveshare_Sense_HAT_B/IMU,-0.7724722688770534,-0.6349831809546744,0.008908683830985899,0.0018944848957450498,-1.0,-1.0,-1.0,-1.0,-1.0,-1.0,-1.0,-1.0,-1.0,-0.0015978966540475428,0.004527373853134705,0.0018642127630554665,0.0,0.0,0.0,0.0,0.0,0.0,0.0,0.0,0.0,-0.19160156250000002,-0.355660400390625,9.99920654296875,0.0,0.0,0.0,0.0,0.0,0.0,0.0,0.0,0.0
1664959677.47189,2614,1664959677,459634652,Waveshare_Sense_HAT_B/IMU,-0.7724560409404175,-0.635002972683621,0.008890530366496492,0.0019616236699476343,-1.0,-1.0,-1.0,-1.0,-1.0,-1.0,-1.0,-1.0,-1.0,-0.0053263221801584755,0.0053263221801584755,-0.007190534943213942,0.0,0.0,0.0,0.0,0.0,0.0,0.0,0.0,0.0,-0.16525634765625,-0.36643798828125,9.992021484375,0.0,0.0,0.0,0.0,0.0,0.0,0.0,0.0,0.0
1664959677.4839845,2615,1664959677,471738405,Waveshare_Sense_HAT_B/IMU,-0.7724868586884814,-0.634965626507156,0.008869728010859326,0.0020085400145814785,-1.0,-1.0,-1.0,-1.0,-1.0,-1.0,-1.0,-1.0,-1.0,-0.007190534943213942,0.0042610577441267805,0.005060006071150552,0.0,0.0,0.0,0.0,0.0,0.0,0.0,0.0,0.0,-0.16046630859375,-0.35326538085937503,9.98244140625,0.0,0.0,0.0,0.0,0.0,0.0,0.0,0.0,0.0
1664959677.4961514,2616,1664959677,483838473,Waveshare_Sense_HAT_B/IMU,-0.7725114795100625,-0.6349358666724549,0.008842252609102472,0.0020673187633578395,-1.0,-1.0,-1.0,-1.0,-1.0,-1.0,-1.0,-1.0,-1.0,-0.006391586616190171,0.0053263221801584755,0.0029294771990871615,0.0,0.0,0.0,0.0,0.0,0.0,0.0,0.0,0.0,-0.16046630859375,-0.346080322265625,9.9680712890625,0.0,0.0,0.0,0.0,0.0,0.0,0.0,0.0,0.0
1664959677.5082915,2617,1664959677,495984799,Waveshare_Sense_HAT_B/IMU,-0.7724838187161495,-0.6349698841302343,0.008800352531548199,0.00213304117930531,-1.0,-1.0,-1.0,-1.0,-1.0,-1.0,-1.0,-1.0,-1.0,-0.005858954398174323,0.007989483270237713,-0.010386328251309028,0.0,0.0,0.0,0.0,0.0,0.0,0.0,0.0,0.0,-0.17004638671875,-0.319735107421875,9.976453857421875,0.0,0.0,0.0,0.0,0.0,0.0,0.0,0.0,0.0
1664959677.5203803,2618,1664959677,508133495,Waveshare_Sense_HAT_B/IMU,-0.7724304769932889,-0.635035302350386,0.008749423967371894,0.0021841613752331852,-1.0,-1.0,-1.0,-1.0,-1.0,-1.0,-1.0,-1.0,-1.0,-0.009587379924285256,0.00905474770626941,-0.016511598758491276,0.0,0.0,0.0,0.0,0.0,0.0,0.0,0.0,0.0,-0.18441650390625,-0.3448828125,9.953701171875,0.0,0.0,0.0,0.0,0.0,0.0,0.0,0.0,0.0
1664959677.532513,2619,1664959677,520234804,Waveshare_Sense_HAT_B/IMU,-0.7723398099058687,-0.6351457542828357,0.008734105632104522,0.002191859909156222,-1.0,-1.0,-1.0,-1.0,-1.0,-1.0,-1.0,-1.0,-1.0,-0.011451592687340723,0.0,-0.02583266257376861,0.0,0.0,0.0,0.0,0.0,0.0,0.0,0.0,0.0,-0.17962646484375,-0.346080322265625,9.953701171875,0.0,0.0,0.0,0.0,0.0,0.0,0.0,0.0,0.0
1664959677.5446136,2620,1664959677,532350575,Waveshare_Sense_HAT_B/IMU,-0.7723090923973458,-0.6351832634996927,0.008722704158184592,0.0021913471739193756,-1.0,-1.0,-1.0,-1.0,-1.0,-1.0,-1.0,-1.0,-1.0,-0.011451592687340723,-0.0010652644360316951,-0.010386328251309028,0.0,0.0,0.0,0.0,0.0,0.0,0.0,0.0,0.0,-0.17244140625,-0.338895263671875,9.9680712890625,0.0,0.0,0.0,0.0,0.0,0.0,0.0,0.0,0.0
1664959677.556748,2621,1664959677,544456439,Waveshare_Sense_HAT_B/IMU,-0.7722326674806893,-0.6352764391445002,0.008718577967522142,0.0021306200429281916,-1.0,-1.0,-1.0,-1.0,-1.0,-1.0,-1.0,-1.0,-1.0,-0.017843179303530892,-0.0077231671612297895,-0.021837920938649752,0.0,0.0,0.0,0.0,0.0,0.0,0.0,0.0,0.0,-0.18202148437500001,-0.3305126953125,9.964478759765626,0.0,0.0,0.0,0.0,0.0,0.0,0.0,0.0,0.0
1664959677.5688293,2622,1664959677,556571618,Waveshare_Sense_HAT_B/IMU,-0.7721581729636467,-0.6353673585867836,0.008711010267455745,0.0020478935559960286,-1.0,-1.0,-1.0,-1.0,-1.0,-1.0,-1.0,-1.0,-1.0,-0.01970739206658636,-0.008255799379245638,-0.021571604829641825,0.0,0.0,0.0,0.0,0.0,0.0,0.0,0.0,0.0,-0.21555175781250002,-0.300574951171875,9.956096191406251,0.0,0.0,0.0,0.0,0.0,0.0,0.0,0.0,0.0
1664959677.5809858,2623,1664959677,568676074,Waveshare_Sense_HAT_B/IMU,-0.7720903222899248,-0.6354499219269079,0.00871635939527976,0.0019889766762874166,-1.0,-1.0,-1.0,-1.0,-1.0,-1.0,-1.0,-1.0,-1.0,-0.015978966540475426,-0.006924218834206019,-0.019973708175594285,0.0,0.0,0.0,0.0,0.0,0.0,0.0,0.0,0.0,-0.23111938476562502,-0.310155029296875,9.962083740234375,0.0,0.0,0.0,0.0,0.0,0.0,0.0,0.0,0.0
1664959677.59309,2624,1664959677,580842752,Waveshare_Sense_HAT_B/IMU,-0.7720348273526063,-0.6355173290675838,0.008728870015149026,0.0019382047606847598,-1.0,-1.0,-1.0,-1.0,-1.0,-1.0,-1.0,-1.0,-1.0,-0.014647385995435807,-0.0066579027251980945,-0.016245282649483352,0.0,0.0,0.0,0.0,0.0,0.0,0.0,0.0,0.0,-0.214354248046875,-0.32572265625,9.966873779296876,0.0,0.0,0.0,0.0,0.0,0.0,0.0,0.0,0.0
1664959677.605177,2625,1664959677,592944801,Waveshare_Sense_HAT_B/IMU,-0.7719829431704621,-0.6355792195500064,0.008827029232937437,0.0018640506959694651,-1.0,-1.0,-1.0,-1.0,-1.0,-1.0,-1.0,-1.0,-1.0,-0.008788431597261484,-0.020772656502618055,-0.015446334322459579,0.0,0.0,0.0,0.0,0.0,0.0,0.0,0.0,0.0,-0.20357666015625,-0.3209326171875,9.97046630859375,0.0,0.0,0.0,0.0,0.0,0.0,0.0,0.0,0.0
1664959677.6172872,2626,1664959677,605042609,Waveshare_Sense_HAT_B/IMU,-0.7719218880607359,-0.6356522615545068,0.008921065005937388,0.0017932407952383576,-1.0,-1.0,-1.0,-1.0,-1.0,-1.0,-1.0,-1.0,-1.0,-0.0055926382891664,-0.019973708175594285,-0.017843179303530892,0.0,0.0,0.0,0.0,0.0,0.0,0.0,0.0,0.0,-0.207169189453125,-0.25147705078125,9.9968115234375,0.0,0.0,0.0,0.0,0.0,0.0,0.0,0.0,0.0
1664959677.6294658,2627,1664959677,617144825,Waveshare_Sense_HAT_B/IMU,-0.7718661932794701,-0.6357192219078659,0.008972092923635745,0.001775420425352844,-1.0,-1.0,-1.0,-1.0,-1.0,-1.0,-1.0,-1.0,-1.0,-0.003728425526110933,-0.009587379924285256,-0.017310547085515045,0.0,0.0,0.0,0.0,0.0,0.0,0.0,0.0,0.0,-0.23111938476562502,-0.250279541015625,9.993218994140625,0.0,0.0,0.0,0.0,0.0,0.0,0.0,0.0,0.0
1664959677.6415734,2628,1664959677,629299929,Waveshare_Sense_HAT_B/IMU,-0.7717808538032969,-0.6358218788700697,0.00903890113133586,0.0017749138364018527,-1.0,-1.0,-1.0,-1.0,-1.0,-1.0,-1.0,-1.0,-1.0,-0.0013315805450396189,-0.010120012142301104,-0.025033714246744835,0.0,0.0,0.0,0.0,0.0,0.0,0.0,0.0,0.0,-0.233514404296875,-0.27542724609375,9.976453857421875,0.0,0.0,0.0,0.0,0.0,0.0,0.0,0.0,0.0
1664959677.6537366,2629,1664959677,641421385,Waveshare_Sense_HAT_B/IMU,-0.771727464373463,-0.6358855445309719,0.009111593835226613,0.0018093772509521417,-1.0,-1.0,-1.0,-1.0,-1.0,-1.0,-1.0,-1.0,-1.0,0.005060006071150552,-0.008255799379245638,-0.017310547085515045,0.0,0.0,0.0,0.0,0.0,0.0,0.0,0.0,0.0,-0.22513183593750002,-0.24189697265625001,9.97046630859375,0.0,0.0,0.0,0.0,0.0,0.0,0.0,0.0,0.0
1664959677.665807,2630,1664959677,653548730,Waveshare_Sense_HAT_B/IMU,-0.7717167407453428,-0.6358974011338387,0.00916974391299672,0.0019191355306868003,-1.0,-1.0,-1.0,-1.0,-1.0,-1.0,-1.0,-1.0,-1.0,0.011451592687340723,0.0005326322180158476,-0.006125270507182247,0.0,0.0,0.0,0.0,0.0,0.0,0.0,0.0,0.0,-0.192799072265625,-0.281414794921875,9.966873779296876,0.0,0.0,0.0,0.0,0.0,0.0,0.0,0.0,0.0
1664959677.6779203,2631,1664959677,665657613,Waveshare_Sense_HAT_B/IMU,-0.7717080319187215,-0.6359069143793756,0.009214792153707498,0.0020487367323959735,-1.0,-1.0,-1.0,-1.0,-1.0,-1.0,-1.0,-1.0,-1.0,0.012250541014364494,0.003728425526110933,-0.005858954398174323,0.0,0.0,0.0,0.0,0.0,0.0,0.0,0.0,0.0,-0.18920654296875,-0.288599853515625,9.97046630859375,0.0,0.0,0.0,0.0,0.0,0.0,0.0,0.0,0.0
1664959677.690013,2632,1664959677,677761440,Waveshare_Sense_HAT_B/IMU,-0.7717076944143674,-0.6359057819899188,0.009295690364726166,0.002158924291093247,-1.0,-1.0,-1.0,-1.0,-1.0,-1.0,-1.0,-1.0,-1.0,0.013582121559404112,-0.0021305288720633903,-0.003728425526110933,0.0,0.0,0.0,0.0,0.0,0.0,0.0,0.0,0.0,-0.204774169921875,-0.288599853515625,9.969268798828125,0.0,0.0,0.0,0.0,0.0,0.0,0.0,0.0,0.0
1664959677.702221,2633,1664959677,689868192,Waveshare_Sense_HAT_B/IMU,-0.7717442873342943,-0.635860393695319,0.00932396138828402,0.0023191465124266066,-1.0,-1.0,-1.0,-1.0,-1.0,-1.0,-1.0,-1.0,-1.0,0.014913702104443732,0.009587379924285256,0.005060006071150552,0.0,0.0,0.0,0.0,0.0,0.0,0.0,0.0,0.0,-0.22034179687500002,-0.276624755859375,9.956096191406251,0.0,0.0,0.0,0.0,0.0,0.0,0.0,0.0,0.0
1664959677.714306,2634,1664959677,702004463,Waveshare_Sense_HAT_B/IMU,-0.7717925888742606,-0.6358010714839931,0.009351478356953864,0.0023973133112676326,-1.0,-1.0,-1.0,-1.0,-1.0,-1.0,-1.0,-1.0,-1.0,0.0034621094171030094,0.0015978966540475428,0.008522115488253561,0.0,0.0,0.0,0.0,0.0,0.0,0.0,0.0,0.0,-0.207169189453125,-0.3113525390625,9.94651611328125,0.0,0.0,0.0,0.0,0.0,0.0,0.0,0.0,0.0
1664959677.7264178,2635,1664959677,714143993,Waveshare_Sense_HAT_B/IMU,-0.7718651441803015,-0.6357114808936589,0.009442180699587487,0.0024407955976996766,-1.0,-1.0,-1.0,-1.0,-1.0,-1.0,-1.0,-1.0,-1.0,0.004527373853134705,-0.009321063815277333,0.015180018213451656,0.0,0.0,0.0,0.0,0.0,0.0,0.0,0.0,0.0,-0.19878662109375,-0.34129028320312504,9.935738525390626,0.0,0.0,0.0,0.0,0.0,0.0,0.0,0.0,0.0
1664959677.7385242,2636,1664959677,726261653,Waveshare_Sense_HAT_B/IMU,-0.7719584043473856,-0.6355965209557365,0.0095532318409486,0.0024536234012875156,-1.0,-1.0,-1.0,-1.0,-1.0,-1.0,-1.0,-1.0,-1.0,0.0034621094171030094,-0.01411475377741996,0.020772656502618055,0.0,0.0,0.0,0.0,0.0,0.0,0.0,0.0,0.0,-0.204774169921875,-0.33410522460937503,9.957293701171876,0.0,0.0,0.0,0.0,0.0,0.0,0.0,0.0,0.0
1664959677.7506766,2637,1664959677,738367906,Waveshare_Sense_HAT_B/IMU,-0.7720204493751556,-0.6355201859326204,0.009606313595797724,0.0024975503698335334,-1.0,-1.0,-1.0,-1.0,-1.0,-1.0,-1.0,-1.0,-1.0,-0.0005326322180158476,-0.004527373853134705,0.012783173232380343,0.0,0.0,0.0,0.0,0.0,0.0,0.0,0.0,0.0,-0.19160156250000002,-0.377215576171875,9.969268798828125,0.0,0.0,0.0,0.0,0.0,0.0,0.0,0.0,0.0
1664959677.7628443,2638,1664959677,750499177,Waveshare_Sense_HAT_B/IMU,-0.7720882282371466,-0.6354361268232132,0.00972491822091556,0.002474370856096554,-1.0,-1.0,-1.0,-1.0,-1.0,-1.0,-1.0,-1.0,-1.0,-0.0026631610900792377,-0.020506340393610132,0.013848437668412037,0.0,0.0,0.0,0.0,0.0,0.0,0.0,0.0,0.0,-0.19399658203125,-0.38200561523437504,9.976453857421875,0.0,0.0,0.0,0.0,0.0,0.0,0.0,0.0,0.0
1664959677.7748942,2639,1664959677,762650614,Waveshare_Sense_HAT_B/IMU,-0.7721065774277782,-0.6354125616723256,0.009810891962949845,0.002460886154800085,-1.0,-1.0,-1.0,-1.0,-1.0,-1.0,-1.0,-1.0,-1.0,-0.004527373853134705,-0.016511598758491276,0.0013315805450396189,0.0,0.0,0.0,0.0,0.0,0.0,0.0,0.0,0.0,-0.17603393554687502,-0.37601806640625,9.97525634765625,0.0,0.0,0.0,0.0,0.0,0.0,0.0,0.0,0.0
1664959677.7870042,2640,1664959677,774757052,Waveshare_Sense_HAT_B/IMU,-0.7721263819943586,-0.6353879254070812,0.00984638388078423,0.0024664143324121656,-1.0,-1.0,-1.0,-1.0,-1.0,-1.0,-1.0,-1.0,-1.0,-0.006924218834206019,-0.008788431597261484,0.0015978966540475428,0.0,0.0,0.0,0.0,0.0,0.0,0.0,0.0,0.0,-0.16525634765625,-0.3688330078125,9.974058837890626,0.0,0.0,0.0,0.0,0.0,0.0,0.0,0.0,0.0
1664959677.7991037,2641,1664959677,786862546,Waveshare_Sense_HAT_B/IMU,-0.7720943623176241,-0.6354268554238403,0.009844595146037742,0.0024680011997965374,-1.0,-1.0,-1.0,-1.0,-1.0,-1.0,-1.0,-1.0,-1.0,-0.011717908796348646,-0.003994741635118856,-0.0111852765783328,0.0,0.0,0.0,0.0,0.0,0.0,0.0,0.0,0.0,-0.16525634765625,-0.38320312500000003,9.971663818359376,0.0,0.0,0.0,0.0,0.0,0.0,0.0,0.0,0.0
1664959677.8111975,2642,1664959677,798969817,Waveshare_Sense_HAT_B/IMU,-0.7720374216628981,-0.6354955702986282,0.009860813409315692,0.0025227052606380178,-1.0,-1.0,-1.0,-1.0,-1.0,-1.0,-1.0,-1.0,-1.0,-0.003994741635118856,-0.0015978966540475428,-0.01810949541253882,0.0,0.0,0.0,0.0,0.0,0.0,0.0,0.0,0.0,-0.17483642578125,-0.389190673828125,9.976453857421875,0.0,0.0,0.0,0.0,0.0,0.0,0.0,0.0,0.0
1664959677.8233695,2643,1664959677,811072274,Waveshare_Sense_HAT_B/IMU,-0.7719621678641082,-0.63558730102478,0.00981851640382465,0.002605935189062131,-1.0,-1.0,-1.0,-1.0,-1.0,-1.0,-1.0,-1.0,-1.0,-0.005060006071150552,0.008522115488253561,-0.022636869265673522,0.0,0.0,0.0,0.0,0.0,0.0,0.0,0.0,0.0,-0.16525634765625,-0.36404296875000003,9.98962646484375,0.0,0.0,0.0,0.0,0.0,0.0,0.0,0.0,0.0
1664959677.8354816,2644,1664959677,823185675,Waveshare_Sense_HAT_B/IMU,-0.7718642260490726,-0.635706672287548,0.009761039725594986,0.0027139377726443596,-1.0,-1.0,-1.0,-1.0,-1.0,-1.0,-1.0,-1.0,-1.0,-0.003728425526110933,0.011984224905356571,-0.028762139772855768,0.0,0.0,0.0,0.0,0.0,0.0,0.0,0.0,0.0,-0.159268798828125,-0.36284545898437504,9.971663818359376,0.0,0.0,0.0,0.0,0.0,0.0,0.0,0.0,0.0
1664959677.8475945,2645,1664959677,835330501,Waveshare_Sense_HAT_B/IMU,-0.771812207668473,-0.6357705461325726,0.009682404864920694,0.0028248540210443224,-1.0,-1.0,-1.0,-1.0,-1.0,-1.0,-1.0,-1.0,-1.0,-0.0055926382891664,0.014913702104443732,-0.017310547085515045,0.0,0.0,0.0,0.0,0.0,0.0,0.0,0.0,0.0,-0.1580712890625,-0.365240478515625,9.954898681640625,0.0,0.0,0.0,0.0,0.0,0.0,0.0,0.0,0.0
1664959677.8597507,2646,1664959677,847443809,Waveshare_Sense_HAT_B/IMU,-0.7717443610897411,-0.6358541495060751,0.009555404532311722,0.002972528606613101,-1.0,-1.0,-1.0,-1.0,-1.0,-1.0,-1.0,-1.0,-1.0,-0.004793689962142628,0.025033714246744835,-0.021305288720633902,0.0,0.0,0.0,0.0,0.0,0.0,0.0,0.0,0.0,-0.15567626953125,-0.34248779296875004,9.962083740234375,0.0,0.0,0.0,0.0,0.0,0.0,0.0,0.0,0.0
1664959677.8718376,2647,1664959677,859567191,Waveshare_Sense_HAT_B/IMU,-0.7717144557261815,-0.6358918841623582,0.00941709402130332,0.0031030339804085927,-1.0,-1.0,-1.0,-1.0,-1.0,-1.0,-1.0,-1.0,-1.0,-0.007456851052221866,0.02583266257376861,-0.011451592687340723,0.0,0.0,0.0,0.0,0.0,0.0,0.0,0.0,0.0,-0.16166381835937502,-0.335302734375,9.9680712890625,0.0,0.0,0.0,0.0,0.0,0.0,0.0,0.0,0.0
1664959677.883981,2648,1664959677,871678833,Waveshare_Sense_HAT_B/IMU,-0.7716574753937435,-0.635962134982075,0.00928601658110169,0.003267022199309121,-1.0,-1.0,-1.0,-1.0,-1.0,-1.0,-1.0,-1.0,-1.0,-0.0029294771990871615,0.0268979270098003,-0.018642127630554665,0.0,0.0,0.0,0.0,0.0,0.0,0.0,0.0,0.0,-0.144898681640625,-0.33769775390625,9.972861328125001,0.0,0.0,0.0,0.0,0.0,0.0,0.0,0.0,0.0
1664959677.8960683,2649,1664959677,883824066,Waveshare_Sense_HAT_B/IMU,-0.7716417488875122,-0.6359813193393345,0.009233973184964703,0.0033921327273937736,-1.0,-1.0,-1.0,-1.0,-1.0,-1.0,-1.0,-1.0,-1.0,0.0002663161090079238,0.012783173232380343,-0.007989483270237713,0.0,0.0,0.0,0.0,0.0,0.0,0.0,0.0,0.0,-0.1293310546875,-0.34129028320312504,9.972861328125001,0.0,0.0,0.0,0.0,0.0,0.0,0.0,0.0,0.0
1664959677.9081697,2650,1664959677,895933393,Waveshare_Sense_HAT_B/IMU,-0.7716254661998435,-0.6360016590930265,0.009145614559541547,0.0035195563811623353,-1.0,-1.0,-1.0,-1.0,-1.0,-1.0,-1.0,-1.0,-1.0,-0.0013315805450396189,0.017843179303530892,-0.008255799379245638,0.0,0.0,0.0,0.0,0.0,0.0,0.0,0.0,0.0,-0.13651611328125002,-0.30416748046875003,10.011181640625,0.0,0.0,0.0,0.0,0.0,0.0,0.0,0.0,0.0
1664959677.920272,2651,1664959677,908036016,Waveshare_Sense_HAT_B/IMU,-0.7716044388066593,-0.6360274407047688,0.009103043677868383,0.003580402240136978,-1.0,-1.0,-1.0,-1.0,-1.0,-1.0,-1.0,-1.0,-1.0,-0.0042610577441267805,0.0053263221801584755,-0.009587379924285256,0.0,0.0,0.0,0.0,0.0,0.0,0.0,0.0,0.0,-0.143701171875,-0.28740234375,10.005194091796875,0.0,0.0,0.0,0.0,0.0,0.0,0.0,0.0,0.0
1664959677.9324207,2652,1664959677,920134788,Waveshare_Sense_HAT_B/IMU,-0.7715711104230948,-0.6360677606129842,0.009095240117093489,0.003619679055986184,-1.0,-1.0,-1.0,-1.0,-1.0,-1.0,-1.0,-1.0,-1.0,-0.0026631610900792377,0.0002663161090079238,-0.012250541014364494,0.0,0.0,0.0,0.0,0.0,0.0,0.0,0.0,0.0,-0.1580712890625,-0.276624755859375,10.007589111328125,0.0,0.0,0.0,0.0,0.0,0.0,0.0,0.0,0.0
1664959677.9445002,2653,1664959677,932240115,Waveshare_Sense_HAT_B/IMU,-0.7714806494919172,-0.6361765235844957,0.009165623210240751,0.003609660737954542,-1.0,-1.0,-1.0,-1.0,-1.0,-1.0,-1.0,-1.0,-1.0,-0.0007989483270237714,-0.014381069886427884,-0.02609897868277653,0.0,0.0,0.0,0.0,0.0,0.0,0.0,0.0,0.0,-0.1484912109375,-0.28021728515625,10.0255517578125,0.0,0.0,0.0,0.0,0.0,0.0,0.0,0.0,0.0
1664959677.9566996,2654,1664959677,944349534,Waveshare_Sense_HAT_B/IMU,-0.7714087725120058,-0.6362622583750808,0.0092814269607939,0.0035636178995248034,-1.0,-1.0,-1.0,-1.0,-1.0,-1.0,-1.0,-1.0,-1.0,-0.0010652644360316951,-0.022636869265673522,-0.020772656502618055,0.0,0.0,0.0,0.0,0.0,0.0,0.0,0.0,0.0,-0.15208374023437501,-0.296982421875,10.02315673828125,0.0,0.0,0.0,0.0,0.0,0.0,0.0,0.0,0.0
1664959677.9687772,2655,1664959677,956523656,Waveshare_Sense_HAT_B/IMU,-0.7713551661923503,-0.6363255681880268,0.009406689346527332,0.0035345514700925217,-1.0,-1.0,-1.0,-1.0,-1.0,-1.0,-1.0,-1.0,-1.0,0.0013315805450396189,-0.021837920938649752,-0.016245282649483352,0.0,0.0,0.0,0.0,0.0,0.0,0.0,0.0,0.0,-0.162861328125,-0.3113525390625,10.012379150390625,0.0,0.0,0.0,0.0,0.0,0.0,0.0,0.0,0.0
1664959677.9808834,2656,1664959677,968634020,Waveshare_Sense_HAT_B/IMU,-0.7712871131754728,-0.6364063693818776,0.00956200070728571,0.0034190937536233393,-1.0,-1.0,-1.0,-1.0,-1.0,-1.0,-1.0,-1.0,-1.0,-0.006391586616190171,-0.034088461953014244,-0.019973708175594285,0.0,0.0,0.0,0.0,0.0,0.0,0.0,0.0,0.0,-0.17962646484375,-0.3113525390625,9.998009033203125,0.0,0.0,0.0,0.0,0.0,0.0,0.0,0.0,0.0
1664959677.9930108,2657,1664959677,980744106,Waveshare_Sense_HAT_B/IMU,-0.7712038455320337,-0.6365062693532051,0.00966523411392086,0.003313753188021435,-1.0,-1.0,-1.0,-1.0,-1.0,-1.0,-1.0,-1.0,-1.0,-0.010386328251309028,-0.026631610900792378,-0.02370213370170522,0.0,0.0,0.0,0.0,0.0,0.0,0.0,0.0,0.0,-0.17603393554687502,-0.31255004882812504,10.005194091796875,0.0,0.0,0.0,0.0,0.0,0.0,0.0,0.0,0.0
1664959678.0051532,2658,1664959677,992862174,Waveshare_Sense_HAT_B/IMU,-0.7711481443885582,-0.6365726520672456,0.009765145918079303,0.003231094451637018,-1.0,-1.0,-1.0,-1.0,-1.0,-1.0,-1.0,-1.0,-1.0,-0.009587379924285256,-0.02450108202872899,-0.0167779148674992,0.0,0.0,0.0,0.0,0.0,0.0,0.0,0.0,0.0,-0.16525634765625,-0.34727783203125,9.952503662109375,0.0,0.0,0.0,0.0,0.0,0.0,0.0,0.0,0.0
1664959678.0172489,2659,1664959678,5004685,Waveshare_Sense_HAT_B/IMU,-0.771139501530627,-0.6365822687650455,0.009839104557954689,0.003174317964628518,-1.0,-1.0,-1.0,-1.0,-1.0,-1.0,-1.0,-1.0,-1.0,-0.00905474770626941,-0.01890844373956259,-0.005060006071150552,0.0,0.0,0.0,0.0,0.0,0.0,0.0,0.0,0.0,-0.16166381835937502,-0.348475341796875,9.95130615234375,0.0,0.0,0.0,0.0,0.0,0.0,0.0,0.0,0.0
1664959678.029373,2660,1664959678,17108567,Waveshare_Sense_HAT_B/IMU,-0.771176595981265,-0.6365366627433257,0.009904958156700524,0.003102675982569491,-1.0,-1.0,-1.0,-1.0,-1.0,-1.0,-1.0,-1.0,-1.0,-0.011451592687340723,-0.019973708175594285,0.006125270507182247,0.0,0.0,0.0,0.0,0.0,0.0,0.0,0.0,0.0,-0.162861328125,-0.3400927734375,9.950108642578126,0.0,0.0,0.0,0.0,0.0,0.0,0.0,0.0,0.0
1664959678.041471,2661,1664959678,29216691,Waveshare_Sense_HAT_B/IMU,-0.7712499363619278,-0.6364472093594185,0.009952959090571173,0.0030698478256010837,-1.0,-1.0,-1.0,-1.0,-1.0,-1.0,-1.0,-1.0,-1.0,-0.007989483270237713,-0.013049489341388266,0.015180018213451656,0.0,0.0,0.0,0.0,0.0,0.0,0.0,0.0,0.0,-0.1772314453125,-0.3305126953125,9.942923583984376,0.0,0.0,0.0,0.0,0.0,0.0,0.0,0.0,0.0
1664959678.0535748,2662,1664959678,41319629,Waveshare_Sense_HAT_B/IMU,-0.7713274222318363,-0.6363525310245745,0.010012453562792623,0.0030355799217914444,-1.0,-1.0,-1.0,-1.0,-1.0,-1.0,-1.0,-1.0,-1.0,-0.0077231671612297895,-0.015180018213451656,0.015978966540475426,0.0,0.0,0.0,0.0,0.0,0.0,0.0,0.0,0.0,-0.17603393554687502,-0.34248779296875004,9.930948486328125,0.0,0.0,0.0,0.0,0.0,0.0,0.0,0.0,0.0
1664959678.0657005,2663,1664959678,53421307,Waveshare_Sense_HAT_B/IMU,-0.7713641236133248,-0.6363066132655855,0.010113407697031663,0.0030002835669321135,-1.0,-1.0,-1.0,-1.0,-1.0,-1.0,-1.0,-1.0,-1.0,-0.0031957933080950856,-0.020772656502618055,0.005858954398174323,0.0,0.0,0.0,0.0,0.0,0.0,0.0,0.0,0.0,-0.168848876953125,-0.33290771484375004,9.934541015625001,0.0,0.0,0.0,0.0,0.0,0.0,0.0,0.0,0.0
1664959678.0782027,2664,1664959678,65534264,Waveshare_Sense_HAT_B/IMU,-0.7714510672525716,-0.6362001686426803,0.010168228382208601,0.0030337082029079283,-1.0,-1.0,-1.0,-1.0,-1.0,-1.0,-1.0,-1.0,-1.0,0.0002663161090079238,-0.007989483270237713,0.018642127630554665,0.0,0.0,0.0,0.0,0.0,0.0,0.0,0.0,0.0,-0.1580712890625,-0.346080322265625,9.9393310546875,0.0,0.0,0.0,0.0,0.0,0.0,0.0,0.0,0.0
1664959678.0899317,2665,1664959678,77663405,Waveshare_Sense_HAT_B/IMU,-0.7715725164173186,-0.6360521430616253,0.010202140304382783,0.003072384964495641,-1.0,-1.0,-1.0,-1.0,-1.0,-1.0,-1.0,-1.0,-1.0,-0.0007989483270237714,-0.004527373853134705,0.0268979270098003,0.0,0.0,0.0,0.0,0.0,0.0,0.0,0.0,0.0,-0.17962646484375,-0.335302734375,9.952503662109375,0.0,0.0,0.0,0.0,0.0,0.0,0.0,0.0,0.0
1664959678.102023,2666,1664959678,89783732,Waveshare_Sense_HAT_B/IMU,-0.7717121649209568,-0.6358813011131191,0.01028798429321515,0.003076164312810759,-1.0,-1.0,-1.0,-1.0,-1.0,-1.0,-1.0,-1.0,-1.0,-0.0013315805450396189,-0.014381069886427884,0.03169161697194293,0.0,0.0,0.0,0.0,0.0,0.0,0.0,0.0,0.0,-0.18082397460937502,-0.370030517578125,9.964478759765626,0.0,0.0,0.0,0.0,0.0,0.0,0.0,0.0,0.0
1664959678.1141443,2667,1664959678,101889873,Waveshare_Sense_HAT_B/IMU,-0.7717949660921012,-0.6357796912922996,0.010352942751222673,0.0030872368795411284,-1.0,-1.0,-1.0,-1.0,-1.0,-1.0,-1.0,-1.0,-1.0,-0.0026631610900792377,-0.010386328251309028,0.01757686319452297,0.0,0.0,0.0,0.0,0.0,0.0,0.0,0.0,0.0,-0.18920654296875,-0.374820556640625,9.96567626953125,0.0,0.0,0.0,0.0,0.0,0.0,0.0,0.0,0.0
1664959678.1263022,2668,1664959678,113991515,Waveshare_Sense_HAT_B/IMU,-0.7718362946204779,-0.6357291422267753,0.010355690421034774,0.0031546324735504234,-1.0,-1.0,-1.0,-1.0,-1.0,-1.0,-1.0,-1.0,-1.0,-0.0029294771990871615,0.0021305288720633903,0.006924218834206019,0.0,0.0,0.0,0.0,0.0,0.0,0.0,0.0,0.0,-0.17483642578125,-0.39398071289062503,9.9776513671875,0.0,0.0,0.0,0.0,0.0,0.0,0.0,0.0,0.0
1664959678.138437,2669,1664959678,126118231,Waveshare_Sense_HAT_B/IMU,-0.7718381674144797,-0.6357263552166666,0.010380134901411153,0.0031776413609495833,-1.0,-1.0,-1.0,-1.0,-1.0,-1.0,-1.0,-1.0,-1.0,-0.0066579027251980945,-0.0055926382891664,-0.0029294771990871615,0.0,0.0,0.0,0.0,0.0,0.0,0.0,0.0,0.0,-0.16645385742187502,-0.40236328125000004,9.957293701171876,0.0,0.0,0.0,0.0,0.0,0.0,0.0,0.0,0.0
1664959678.1505644,2670,1664959678,138283834,Waveshare_Sense_HAT_B/IMU,-0.7717849508800357,-0.6357911774628853,0.010351298078721694,0.003227829540769023,-1.0,-1.0,-1.0,-1.0,-1.0,-1.0,-1.0,-1.0,-1.0,-0.007989483270237713,0.003728425526110933,-0.017044230976507122,0.0,0.0,0.0,0.0,0.0,0.0,0.0,0.0,0.0,-0.173638916015625,-0.384400634765625,9.956096191406251,0.0,0.0,0.0,0.0,0.0,0.0,0.0,0.0,0.0
1664959678.162684,2671,1664959678,150398494,Waveshare_Sense_HAT_B/IMU,-0.7717675212154288,-0.6358126647550341,0.010334413805986467,0.0032168968559940637,-1.0,-1.0,-1.0,-1.0,-1.0,-1.0,-1.0,-1.0,-1.0,-0.012783173232380343,-0.0042610577441267805,-0.008255799379245638,0.0,0.0,0.0,0.0,0.0,0.0,0.0,0.0,0.0,-0.1772314453125,-0.348475341796875,9.956096191406251,0.0,0.0,0.0,0.0,0.0,0.0,0.0,0.0,0.0
1664959678.1747825,2672,1664959678,162514636,Waveshare_Sense_HAT_B/IMU,-0.7717521209860335,-0.6358311269819917,0.01035051215532132,0.003210702803354259,-1.0,-1.0,-1.0,-1.0,-1.0,-1.0,-1.0,-1.0,-1.0,-0.008522115488253561,-0.008522115488253561,-0.008255799379245638,0.0,0.0,0.0,0.0,0.0,0.0,0.0,0.0,0.0,-0.18561401367187502,-0.33410522460937503,9.96567626953125,0.0,0.0,0.0,0.0,0.0,0.0,0.0,0.0,0.0
1664959678.186891,2673,1664959678,174631611,Waveshare_Sense_HAT_B/IMU,-0.7716955903320479,-0.6358986541475129,0.01041777626278799,0.0032074059911389916,-1.0,-1.0,-1.0,-1.0,-1.0,-1.0,-1.0,-1.0,-1.0,-0.0034621094171030094,-0.014647385995435807,-0.01810949541253882,0.0,0.0,0.0,0.0,0.0,0.0,0.0,0.0,0.0,-0.17004638671875,-0.348475341796875,9.953701171875,0.0,0.0,0.0,0.0,0.0,0.0,0.0,0.0,0.0
1664959678.1990204,2674,1664959678,186745974,Waveshare_Sense_HAT_B/IMU,-0.7715908278640886,-0.6360251866471222,0.010453306161310252,0.0032069762708122652,-1.0,-1.0,-1.0,-1.0,-1.0,-1.0,-1.0,-1.0,-1.0,-0.004793689962142628,-0.009587379924285256,-0.030093720317895388,0.0,0.0,0.0,0.0,0.0,0.0,0.0,0.0,0.0,-0.18202148437500001,-0.317340087890625,9.945318603515625,0.0,0.0,0.0,0.0,0.0,0.0,0.0,0.0,0.0
1664959678.2111487,2675,1664959678,198861560,Waveshare_Sense_HAT_B/IMU,-0.7715340737822394,-0.6360928370526697,0.010536281432082103,0.0031721312790835158,-1.0,-1.0,-1.0,-1.0,-1.0,-1.0,-1.0,-1.0,-1.0,-0.0031957933080950856,-0.01890844373956259,-0.01810949541253882,0.0,0.0,0.0,0.0,0.0,0.0,0.0,0.0,0.0,-0.18920654296875,-0.29458740234375,9.94412109375,0.0,0.0,0.0,0.0,0.0,0.0,0.0,0.0,0.0
1664959678.2232413,2676,1664959678,211004665,Waveshare_Sense_HAT_B/IMU,-0.7715105572224169,-0.6361194871557305,0.010676031521999621,0.0030790430376784234,-1.0,-1.0,-1.0,-1.0,-1.0,-1.0,-1.0,-1.0,-1.0,-0.003994741635118856,-0.031425300862935004,-0.009587379924285256,0.0,0.0,0.0,0.0,0.0,0.0,0.0,0.0,0.0,-0.199984130859375,-0.28261230468750004,9.94651611328125,0.0,0.0,0.0,0.0,0.0,0.0,0.0,0.0,0.0
1664959678.235369,2677,1664959678,223110806,Waveshare_Sense_HAT_B/IMU,-0.7715323824479838,-0.6360917573271951,0.010759013000759024,0.0030500383256802936,-1.0,-1.0,-1.0,-1.0,-1.0,-1.0,-1.0,-1.0,-1.0,-0.0005326322180158476,-0.01810949541253882,0.0015978966540475428,0.0,0.0,0.0,0.0,0.0,0.0,0.0,0.0,0.0,-0.197589111328125,-0.25626708984375,9.97046630859375,0.0,0.0,0.0,0.0,0.0,0.0,0.0,0.0,0.0
1664959678.247471,2678,1664959678,235218411,Waveshare_Sense_HAT_B/IMU,-0.7716029452448476,-0.63600463068232,0.010851758246708492,0.003040391928209084,-1.0,-1.0,-1.0,-1.0,-1.0,-1.0,-1.0,-1.0,-1.0,0.002396844981071314,-0.018642127630554665,0.013582121559404112,0.0,0.0,0.0,0.0,0.0,0.0,0.0,0.0,0.0,-0.18202148437500001,-0.264649658203125,9.980046386718751,0.0,0.0,0.0,0.0,0.0,0.0,0.0,0.0,0.0
1664959678.2595973,2679,1664959678,247321849,Waveshare_Sense_HAT_B/IMU,-0.7716203799464293,-0.6359821520764048,0.010928107599632095,0.0030443317630314743,-1.0,-1.0,-1.0,-1.0,-1.0,-1.0,-1.0,-1.0,-1.0,0.0005326322180158476,-0.014647385995435807,0.0005326322180158476,0.0,0.0,0.0,0.0,0.0,0.0,0.0,0.0,0.0,-0.183218994140625,-0.30895751953125,9.978848876953126,0.0,0.0,0.0,0.0,0.0,0.0,0.0,0.0,0.0
1664959678.2717118,2680,1664959678,259453101,Waveshare_Sense_HAT_B/IMU,-0.7716131688304625,-0.6359900174696661,0.010981319293644619,0.0030374319608859877,-1.0,-1.0,-1.0,-1.0,-1.0,-1.0,-1.0,-1.0,-1.0,-0.0029294771990871615,-0.011717908796348646,-0.005060006071150552,0.0,0.0,0.0,0.0,0.0,0.0,0.0,0.0,0.0,-0.18082397460937502,-0.31255004882812504,9.97525634765625,0.0,0.0,0.0,0.0,0.0,0.0,0.0,0.0,0.0
1664959678.28381,2681,1664959678,271564872,Waveshare_Sense_HAT_B/IMU,-0.771652088173876,-0.63594264201291,0.01099183275750461,0.003031583607299192,-1.0,-1.0,-1.0,-1.0,-1.0,-1.0,-1.0,-1.0,-1.0,-0.006924218834206019,-0.006125270507182247,0.006391586616190171,0.0,0.0,0.0,0.0,0.0,0.0,0.0,0.0,0.0,-0.18681152343750002,-0.30895751953125,9.969268798828125,0.0,0.0,0.0,0.0,0.0,0.0,0.0,0.0,0.0
1664959678.2959077,2682,1664959678,283666440,Waveshare_Sense_HAT_B/IMU,-0.7717146376327596,-0.6358664606716102,0.01100638369631649,0.0030367374313829834,-1.0,-1.0,-1.0,-1.0,-1.0,-1.0,-1.0,-1.0,-1.0,-0.005060006071150552,-0.007989483270237713,0.011451592687340723,0.0,0.0,0.0,0.0,0.0,0.0,0.0,0.0,0.0,-0.1676513671875,-0.296982421875,9.974058837890626,0.0,0.0,0.0,0.0,0.0,0.0,0.0,0.0,0.0
1664959678.3080618,2683,1664959678,295774489,Waveshare_Sense_HAT_B/IMU,-0.7717264727113702,-0.6358516010376819,0.011021066448636182,0.003086886557409786,-1.0,-1.0,-1.0,-1.0,-1.0,-1.0,-1.0,-1.0,-1.0,-0.0005326322180158476,-0.003728425526110933,-0.0010652644360316951,0.0,0.0,0.0,0.0,0.0,0.0,0.0,0.0,0.0,-0.15328125,-0.3209326171875,9.96088623046875,0.0,0.0,0.0,0.0,0.0,0.0,0.0,0.0,0.0
1664959678.3201807,2684,1664959678,307889001,Waveshare_Sense_HAT_B/IMU,-0.7717257988897714,-0.6358520239702614,0.011017240091657299,0.003180465630822524,-1.0,-1.0,-1.0,-1.0,-1.0,-1.0,-1.0,-1.0,-1.0,0.0031957933080950856,0.0031957933080950856,-0.003994741635118856,0.0,0.0,0.0,0.0,0.0,0.0,0.0,0.0,0.0,-0.144898681640625,-0.319735107421875,9.947713623046875,0.0,0.0,0.0,0.0,0.0,0.0,0.0,0.0,0.0
1664959678.332297,2685,1664959678,320027735,Waveshare_Sense_HAT_B/IMU,-0.7717403729325525,-0.6358346725266145,0.010976981002131254,0.0032514438295336632,-1.0,-1.0,-1.0,-1.0,-1.0,-1.0,-1.0,-1.0,-1.0,-0.0042610577441267805,0.0053263221801584755,-0.0005326322180158476,0.0,0.0,0.0,0.0,0.0,0.0,0.0,0.0,0.0,-0.15567626953125,-0.33769775390625,9.940528564453125,0.0,0.0,0.0,0.0,0.0,0.0,0.0,0.0,0.0
1664959678.344388,2686,1664959678,332138191,Waveshare_Sense_HAT_B/IMU,-0.7717379130920955,-0.6358388405677787,0.010909326680296491,0.0032479090292820856,-1.0,-1.0,-1.0,-1.0,-1.0,-1.0,-1.0,-1.0,-1.0,-0.015712650431467502,0.0010652644360316951,-0.005060006071150552,0.0,0.0,0.0,0.0,0.0,0.0,0.0,0.0,0.0,-0.162861328125,-0.32332763671875003,9.953701171875,0.0,0.0,0.0,0.0,0.0,0.0,0.0,0.0,0.0
1664959678.3565273,2687,1664959678,344240944,Waveshare_Sense_HAT_B/IMU,-0.7717866723526703,-0.6357811061715346,0.01081759537409027,0.00327063364110652,-1.0,-1.0,-1.0,-1.0,-1.0,-1.0,-1.0,-1.0,-1.0,-0.015180018213451656,0.0066579027251980945,0.007456851052221866,0.0,0.0,0.0,0.0,0.0,0.0,0.0,0.0,0.0,-0.1676513671875,-0.32572265625,9.935738525390626,0.0,0.0,0.0,0.0,0.0,0.0,0.0,0.0,0.0
1664959678.3686352,2688,1664959678,356359012,Waveshare_Sense_HAT_B/IMU,-0.7718524247139806,-0.6357027055177538,0.010730816214054683,0.003279366392628943,-1.0,-1.0,-1.0,-1.0,-1.0,-1.0,-1.0,-1.0,-1.0,-0.016245282649483352,0.004527373853134705,0.011717908796348646,0.0,0.0,0.0,0.0,0.0,0.0,0.0,0.0,0.0,-0.1676513671875,-0.3209326171875,9.935738525390626,0.0,0.0,0.0,0.0,0.0,0.0,0.0,0.0,0.0
1664959678.3807583,2689,1664959678,368472431,Waveshare_Sense_HAT_B/IMU,-0.771853917738367,-0.6357023802166132,0.010634786644991429,0.0033037511834543756,-1.0,-1.0,-1.0,-1.0,-1.0,-1.0,-1.0,-1.0,-1.0,-0.015446334322459579,0.007190534943213942,-0.004527373853134705,0.0,0.0,0.0,0.0,0.0,0.0,0.0,0.0,0.0,-0.17004638671875,-0.32213012695312504,9.954898681640625,0.0,0.0,0.0,0.0,0.0,0.0,0.0,0.0,0.0
1664959678.392918,2690,1664959678,380598943,Waveshare_Sense_HAT_B/IMU,-0.7718629626191431,-0.6356918449488274,0.01059997788997728,0.003329515143014965,-1.0,-1.0,-1.0,-1.0,-1.0,-1.0,-1.0,-1.0,-1.0,-0.009587379924285256,0.0013315805450396189,-0.0021305288720633903,0.0,0.0,0.0,0.0,0.0,0.0,0.0,0.0,0.0,-0.188009033203125,-0.33769775390625,9.95130615234375,0.0,0.0,0.0,0.0,0.0,0.0,0.0,0.0,0.0
1664959678.4050012,2691,1664959678,392764139,Waveshare_Sense_HAT_B/IMU,-0.7719275455003327,-0.6356147326451969,0.010508722993776056,0.0033679197209995483,-1.0,-1.0,-1.0,-1.0,-1.0,-1.0,-1.0,-1.0,-1.0,-0.013848437668412037,0.00905474770626941,0.011717908796348646,0.0,0.0,0.0,0.0,0.0,0.0,0.0,0.0,0.0,-0.17483642578125,-0.34129028320312504,9.96567626953125,0.0,0.0,0.0,0.0,0.0,0.0,0.0,0.0,0.0
1664959678.4171154,2692,1664959678,404869484,Waveshare_Sense_HAT_B/IMU,-0.7719711612202286,-0.6355637634272266,0.010373800820149234,0.0034078026726918377,-1.0,-1.0,-1.0,-1.0,-1.0,-1.0,-1.0,-1.0,-1.0,-0.018642127630554665,0.013848437668412037,0.006125270507182247,0.0,0.0,0.0,0.0,0.0,0.0,0.0,0.0,0.0,-0.164058837890625,-0.3496728515625,9.98483642578125,0.0,0.0,0.0,0.0,0.0,0.0,0.0,0.0,0.0
1664959678.4292636,2693,1664959678,416973904,Waveshare_Sense_HAT_B/IMU,-0.7719697672497885,-0.6355669497858757,0.010272745703967629,0.003435329371001962,-1.0,-1.0,-1.0,-1.0,-1.0,-1.0,-1.0,-1.0,-1.0,-0.015712650431467502,0.008788431597261484,-0.004793689962142628,0.0,0.0,0.0,0.0,0.0,0.0,0.0,0.0,0.0,-0.1580712890625,-0.329315185546875,9.97046630859375,0.0,0.0,0.0,0.0,0.0,0.0,0.0,0.0,0.0
1664959678.4413798,2694,1664959678,429087490,Waveshare_Sense_HAT_B/IMU,-0.771946740131417,-0.635595271692456,0.010214428962780714,0.0035420959382569,-1.0,-1.0,-1.0,-1.0,-1.0,-1.0,-1.0,-1.0,-1.0,-0.0034621094171030094,0.011451592687340723,-0.010120012142301104,0.0,0.0,0.0,0.0,0.0,0.0,0.0,0.0,0.0,-0.1484912109375,-0.3688330078125,9.938133544921875,0.0,0.0,0.0,0.0,0.0,0.0,0.0,0.0,0.0
1664959678.4534926,2695,1664959678,441227186,Waveshare_Sense_HAT_B/IMU,-0.7719130824712457,-0.6356361773002424,0.010158613610972166,0.003694020354286026,-1.0,-1.0,-1.0,-1.0,-1.0,-1.0,-1.0,-1.0,-1.0,0.0026631610900792377,0.015712650431467502,-0.012516857123372417,0.0,0.0,0.0,0.0,0.0,0.0,0.0,0.0,0.0,-0.135318603515625,-0.367635498046875,9.950108642578126,0.0,0.0,0.0,0.0,0.0,0.0,0.0,0.0,0.0
1664959678.4656234,2696,1664959678,453340402,Waveshare_Sense_HAT_B/IMU,-0.7718698430361878,-0.6356875038202057,0.010148985164795583,0.00391675864094464,-1.0,-1.0,-1.0,-1.0,-1.0,-1.0,-1.0,-1.0,-1.0,0.014381069886427884,0.017044230976507122,-0.015180018213451656,0.0,0.0,0.0,0.0,0.0,0.0,0.0,0.0,0.0,-0.143701171875,-0.40236328125000004,9.95130615234375,0.0,0.0,0.0,0.0,0.0,0.0,0.0,0.0,0.0
1664959678.4776933,2697,1664959678,465453673,Waveshare_Sense_HAT_B/IMU,-0.7718372569001121,-0.6357250291402272,0.010208365891353498,0.004089676196917189,-1.0,-1.0,-1.0,-1.0,-1.0,-1.0,-1.0,-1.0,-1.0,0.015712650431467502,0.003728425526110933,-0.012250541014364494,0.0,0.0,0.0,0.0,0.0,0.0,0.0,0.0,0.0,-0.144898681640625,-0.39517822265625,9.921368408203126,0.0,0.0,0.0,0.0,0.0,0.0,0.0,0.0,0.0
1664959678.4897923,2698,1664959678,477551852,Waveshare_Sense_HAT_B/IMU,-0.771832339841537,-0.6357296616778392,0.010231957898683672,0.004235973946804942,-1.0,-1.0,-1.0,-1.0,-1.0,-1.0,-1.0,-1.0,-1.0,0.009321063815277333,0.0053263221801584755,-0.005060006071150552,0.0,0.0,0.0,0.0,0.0,0.0,0.0,0.0,0.0,-0.1293310546875,-0.39158569335937504,9.928553466796876,0.0,0.0,0.0,0.0,0.0,0.0,0.0,0.0,0.0
1664959678.502166,2699,1664959678,489649401,Waveshare_Sense_HAT_B/IMU,-0.7717945548860313,-0.635773486596376,0.010324614313858409,0.004317537334030323,-1.0,-1.0,-1.0,-1.0,-1.0,-1.0,-1.0,-1.0,-1.0,0.008522115488253561,-0.008522115488253561,-0.012783173232380343,0.0,0.0,0.0,0.0,0.0,0.0,0.0,0.0,0.0,-0.143701171875,-0.39398071289062503,9.930948486328125,0.0,0.0,0.0,0.0,0.0,0.0,0.0,0.0,0.0
1664959678.5141625,2700,1664959678,501832171,Waveshare_Sense_HAT_B/IMU,-0.7717352290809775,-0.6358429309319574,0.010471005364043396,0.004342974309821625,-1.0,-1.0,-1.0,-1.0,-1.0,-1.0,-1.0,-1.0,-1.0,0.007989483270237713,-0.02103897261162598,-0.018375811521546742,0.0,0.0,0.0,0.0,0.0,0.0,0.0,0.0,0.0,-0.15687377929687502,-0.370030517578125,9.90340576171875,0.0,0.0,0.0,0.0,0.0,0.0,0.0,0.0,0.0
1664959678.5263,2701,1664959678,513984016,Waveshare_Sense_HAT_B/IMU,-0.7716918041229286,-0.6358928221705957,0.010635136222197436,0.0043556904102790795,-1.0,-1.0,-1.0,-1.0,-1.0,-1.0,-1.0,-1.0,-1.0,0.006924218834206019,-0.02450108202872899,-0.014647385995435807,0.0,0.0,0.0,0.0,0.0,0.0,0.0,0.0,0.0,-0.17244140625,-0.396375732421875,9.909393310546875,0.0,0.0,0.0,0.0,0.0,0.0,0.0,0.0,0.0
1664959678.5383656,2702,1664959678,526115361,Waveshare_Sense_HAT_B/IMU,-0.7716344997867903,-0.635959374090623,0.010820033038550106,0.004335911680094341,-1.0,-1.0,-1.0,-1.0,-1.0,-1.0,-1.0,-1.0,-1.0,0.006391586616190171,-0.03115898475392708,-0.01810949541253882,0.0,0.0,0.0,0.0,0.0,0.0,0.0,0.0,0.0,-0.162861328125,-0.3688330078125,9.934541015625001,0.0,0.0,0.0,0.0,0.0,0.0,0.0,0.0,0.0
1664959678.5504968,2703,1664959678,538221818,Waveshare_Sense_HAT_B/IMU,-0.7715767353735571,-0.6360262843506226,0.011045388512355413,0.00423159993810357,-1.0,-1.0,-1.0,-1.0,-1.0,-1.0,-1.0,-1.0,-1.0,0.002396844981071314,-0.04420847409531535,-0.017843179303530892,0.0,0.0,0.0,0.0,0.0,0.0,0.0,0.0,0.0,-0.17004638671875,-0.32332763671875003,9.938133544921875,0.0,0.0,0.0,0.0,0.0,0.0,0.0,0.0,0.0
1664959678.562713,2704,1664959678,550335348,Waveshare_Sense_HAT_B/IMU,-0.7715392194997428,-0.6360698542819371,0.011220947639612764,0.00405753392494889,-1.0,-1.0,-1.0,-1.0,-1.0,-1.0,-1.0,-1.0,-1.0,-0.00985369603329318,-0.045273738531347044,-0.012516857123372417,0.0,0.0,0.0,0.0,0.0,0.0,0.0,0.0,0.0,-0.1580712890625,-0.298179931640625,9.947713623046875,0.0,0.0,0.0,0.0,0.0,0.0,0.0,0.0,0.0
1664959678.5747979,2705,1664959678,562547747,Waveshare_Sense_HAT_B/IMU,-0.7715229665409757,-0.6360888656876668,0.011308795405432134,0.0039215041078465235,-1.0,-1.0,-1.0,-1.0,-1.0,-1.0,-1.0,-1.0,-1.0,-0.013848437668412037,-0.03115898475392708,-0.007456851052221866,0.0,0.0,0.0,0.0,0.0,0.0,0.0,0.0,0.0,-0.15088623046875002,-0.29338989257812503,9.971663818359376,0.0,0.0,0.0,0.0,0.0,0.0,0.0,0.0,0.0
1664959678.5869007,2706,1664959678,574652945,Waveshare_Sense_HAT_B/IMU,-0.7714501466044789,-0.6361770172233663,0.011357895147017226,0.0038042448052148007,-1.0,-1.0,-1.0,-1.0,-1.0,-1.0,-1.0,-1.0,-1.0,-0.013582121559404112,-0.023968449810713142,-0.021837920938649752,0.0,0.0,0.0,0.0,0.0,0.0,0.0,0.0,0.0,-0.164058837890625,-0.250279541015625,9.972861328125001,0.0,0.0,0.0,0.0,0.0,0.0,0.0,0.0,0.0
1664959678.598999,2707,1664959678,586757327,Waveshare_Sense_HAT_B/IMU,-0.7713859081097312,-0.6362544912754701,0.011413008441379888,0.003707605674153234,-1.0,-1.0,-1.0,-1.0,-1.0,-1.0,-1.0,-1.0,-1.0,-0.010120012142301104,-0.02343581759269729,-0.019973708175594285,0.0,0.0,0.0,0.0,0.0,0.0,0.0,0.0,0.0,-0.159268798828125,-0.239501953125,9.97046630859375,0.0,0.0,0.0,0.0,0.0,0.0,0.0,0.0,0.0
1664959678.6111987,2708,1664959678,598861265,Waveshare_Sense_HAT_B/IMU,-0.7713540936354564,-0.6362928378295536,0.011442455985023773,0.003654717453936901,-1.0,-1.0,-1.0,-1.0,-1.0,-1.0,-1.0,-1.0,-1.0,-0.007989483270237713,-0.015180018213451656,-0.011984224905356571,0.0,0.0,0.0,0.0,0.0,0.0,0.0,0.0,0.0,-0.17483642578125,-0.25387207031250003,9.981243896484376,0.0,0.0,0.0,0.0,0.0,0.0,0.0,0.0,0.0
1664959678.6232867,2709,1664959678,611040202,Waveshare_Sense_HAT_B/IMU,-0.771345652820832,-0.6363027230139637,0.011467243520328674,0.0036374284137412095,-1.0,-1.0,-1.0,-1.0,-1.0,-1.0,-1.0,-1.0,-1.0,-0.003728425526110933,-0.012783173232380343,-0.006391586616190171,0.0,0.0,0.0,0.0,0.0,0.0,0.0,0.0,0.0,-0.14609619140625002,-0.2442919921875,9.995614013671876,0.0,0.0,0.0,0.0,0.0,0.0,0.0,0.0,0.0
1664959678.6354141,2710,1664959678,623150251,Waveshare_Sense_HAT_B/IMU,-0.7714010088594935,-0.6362358858823239,0.011456946339256698,0.003622074912205584,-1.0,-1.0,-1.0,-1.0,-1.0,-1.0,-1.0,-1.0,-1.0,-0.0066579027251980945,-0.0077231671612297895,0.009587379924285256,0.0,0.0,0.0,0.0,0.0,0.0,0.0,0.0,0.0,-0.15208374023437501,-0.238304443359375,9.988428955078126,0.0,0.0,0.0,0.0,0.0,0.0,0.0,0.0,0.0
1664959678.6475255,2711,1664959678,635260170,Waveshare_Sense_HAT_B/IMU,-0.7714594963590675,-0.6361650849354398,0.01145127501074247,0.0036191832126443667,-1.0,-1.0,-1.0,-1.0,-1.0,-1.0,-1.0,-1.0,-1.0,-0.006924218834206019,-0.008255799379245638,0.00985369603329318,0.0,0.0,0.0,0.0,0.0,0.0,0.0,0.0,0.0,-0.147293701171875,-0.28021728515625,9.988428955078126,0.0,0.0,0.0,0.0,0.0,0.0,0.0,0.0,0.0
1664959678.6597006,2712,1664959678,647367164,Waveshare_Sense_HAT_B/IMU,-0.771502644139129,-0.6361123479789663,0.011484955417582302,0.0035842201488449498,-1.0,-1.0,-1.0,-1.0,-1.0,-1.0,-1.0,-1.0,-1.0,-0.006924218834206019,-0.016511598758491276,0.005858954398174323,0.0,0.0,0.0,0.0,0.0,0.0,0.0,0.0,0.0,-0.154478759765625,-0.276624755859375,9.959688720703125,0.0,0.0,0.0,0.0,0.0,0.0,0.0,0.0,0.0
1664959678.6718278,2713,1664959678,659505286,Waveshare_Sense_HAT_B/IMU,-0.7715415670799615,-0.6360637222959218,0.011591753020048032,0.0034903737301598976,-1.0,-1.0,-1.0,-1.0,-1.0,-1.0,-1.0,-1.0,-1.0,-0.006924218834206019,-0.03115898475392708,0.0053263221801584755,0.0,0.0,0.0,0.0,0.0,0.0,0.0,0.0,0.0,-0.154478759765625,-0.28261230468750004,9.94412109375,0.0,0.0,0.0,0.0,0.0,0.0,0.0,0.0,0.0
1664959678.6839492,2714,1664959678,671668686,Waveshare_Sense_HAT_B/IMU,-0.7715787286012094,-0.6360166341595096,0.01173470089088053,0.0033768976223024993,-1.0,-1.0,-1.0,-1.0,-1.0,-1.0,-1.0,-1.0,-1.0,-0.007456851052221866,-0.038349519697141024,0.005060006071150552,0.0,0.0,0.0,0.0,0.0,0.0,0.0,0.0,0.0,-0.142503662109375,-0.3209326171875,9.954898681640625,0.0,0.0,0.0,0.0,0.0,0.0,0.0,0.0,0.0
1664959678.696037,2715,1664959678,683788680,Waveshare_Sense_HAT_B/IMU,-0.771588584531153,-0.6360027253942446,0.011876364368559246,0.0032467648036216814,-1.0,-1.0,-1.0,-1.0,-1.0,-1.0,-1.0,-1.0,-1.0,-0.00985369603329318,-0.03781688747912518,-0.0018642127630554665,0.0,0.0,0.0,0.0,0.0,0.0,0.0,0.0,0.0,-0.192799072265625,-0.32332763671875003,9.938133544921875,0.0,0.0,0.0,0.0,0.0,0.0,0.0,0.0,0.0
1664959678.708177,2716,1664959678,695893544,Waveshare_Sense_HAT_B/IMU,-0.7716132587538356,-0.635970848853513,0.012007157976625153,0.00314427752481188,-1.0,-1.0,-1.0,-1.0,-1.0,-1.0,-1.0,-1.0,-1.0,-0.008522115488253561,-0.03542004249805386,0.0018642127630554665,0.0,0.0,0.0,0.0,0.0,0.0,0.0,0.0,0.0,-0.15687377929687502,-0.3448828125,9.9393310546875,0.0,0.0,0.0,0.0,0.0,0.0,0.0,0.0,0.0
1664959678.720323,2717,1664959678,708021704,Waveshare_Sense_HAT_B/IMU,-0.7716390664835135,-0.6359379462278749,0.012123614437769676,0.0030162222876386918,-1.0,-1.0,-1.0,-1.0,-1.0,-1.0,-1.0,-1.0,-1.0,-0.013049489341388266,-0.03542004249805386,0.0021305288720633903,0.0,0.0,0.0,0.0,0.0,0.0,0.0,0.0,0.0,-0.178428955078125,-0.34248779296875004,9.930948486328125,0.0,0.0,0.0,0.0,0.0,0.0,0.0,0.0,0.0
1664959678.7324355,2718,1664959678,720168011,Waveshare_Sense_HAT_B/IMU,-0.7716670902198747,-0.6359027153768619,0.012213406056560754,0.002910525798370831,-1.0,-1.0,-1.0,-1.0,-1.0,-1.0,-1.0,-1.0,-1.0,-0.013582121559404112,-0.029294771990871615,0.0021305288720633903,0.0,0.0,0.0,0.0,0.0,0.0,0.0,0.0,0.0,-0.21315673828125,-0.348475341796875,9.941726074218751,0.0,0.0,0.0,0.0,0.0,0.0,0.0,0.0,0.0
1664959678.7445471,2719,1664959678,732284560,Waveshare_Sense_HAT_B/IMU,-0.7716853292788244,-0.6358803244683846,0.01224309230569006,0.002841165361040603,-1.0,-1.0,-1.0,-1.0,-1.0,-1.0,-1.0,-1.0,-1.0,-0.014381069886427884,-0.017843179303530892,-0.0002663161090079238,0.0,0.0,0.0,0.0,0.0,0.0,0.0,0.0,0.0,-0.21195922851562501,-0.33410522460937503,9.954898681640625,0.0,0.0,0.0,0.0,0.0,0.0,0.0,0.0,0.0
1664959678.7566884,2720,1664959678,744389591,Waveshare_Sense_HAT_B/IMU,-0.7717209068682107,-0.6358379854123091,0.012201441867164079,0.0028324946045932336,-1.0,-1.0,-1.0,-1.0,-1.0,-1.0,-1.0,-1.0,-1.0,-0.013848437668412037,-0.0026631610900792377,0.003728425526110933,0.0,0.0,0.0,0.0,0.0,0.0,0.0,0.0,0.0,-0.22273681640625,-0.326920166015625,9.981243896484376,0.0,0.0,0.0,0.0,0.0,0.0,0.0,0.0,0.0
1664959678.7687707,2721,1664959678,756515343,Waveshare_Sense_HAT_B/IMU,-0.7717442492621739,-0.6358108140385144,0.012138954652674477,0.0028404686911611523,-1.0,-1.0,-1.0,-1.0,-1.0,-1.0,-1.0,-1.0,-1.0,-0.011984224905356571,0.002396844981071314,0.0005326322180158476,0.0,0.0,0.0,0.0,0.0,0.0,0.0,0.0,0.0,-0.23710693359375,-0.28500732421875,9.98244140625,0.0,0.0,0.0,0.0,0.0,0.0,0.0,0.0,0.0
1664959678.7808812,2722,1664959678,768620559,Waveshare_Sense_HAT_B/IMU,-0.7717848286398046,-0.6357645436898519,0.011977643733299058,0.0028564521456030043,-1.0,-1.0,-1.0,-1.0,-1.0,-1.0,-1.0,-1.0,-1.0,-0.021837920938649752,0.015180018213451656,0.0042610577441267805,0.0,0.0,0.0,0.0,0.0,0.0,0.0,0.0,0.0,-0.24189697265625001,-0.296982421875,9.969268798828125,0.0,0.0,0.0,0.0,0.0,0.0,0.0,0.0,0.0
1664959678.79303,2723,1664959678,780728682,Waveshare_Sense_HAT_B/IMU,-0.7718606228575573,-0.6356761378016902,0.011770352287745535,0.002912991330676433,-1.0,-1.0,-1.0,-1.0,-1.0,-1.0,-1.0,-1.0,-1.0,-0.022104237047657675,0.023968449810713142,0.013315805450396189,0.0,0.0,0.0,0.0,0.0,0.0,0.0,0.0,0.0,-0.204774169921875,-0.31374755859375003,9.986033935546876,0.0,0.0,0.0,0.0,0.0,0.0,0.0,0.0,0.0
1664959678.805112,2724,1664959678,792870916,Waveshare_Sense_HAT_B/IMU,-0.7718947014405488,-0.6356378360313728,0.01159965695905166,0.0029256198986835607,-1.0,-1.0,-1.0,-1.0,-1.0,-1.0,-1.0,-1.0,-1.0,-0.02370213370170522,0.017044230976507122,0.0031957933080950856,0.0,0.0,0.0,0.0,0.0,0.0,0.0,0.0,0.0,-0.239501953125,-0.3113525390625,9.995614013671876,0.0,0.0,0.0,0.0,0.0,0.0,0.0,0.0,0.0
